시장명,시장유형,소재지도로명주소,소재지지번주소,시장개설주기,위도,경도,점포수,취급품목,사용가능상품권,홈페이지주소,공중화장실보유여부,주차장보유여부,개설년도,전화번호,데이터기준일자,
영양공설시장,상설장,경상북도 영양군 영양읍 시장5길 4,,매일+4일+9일,36.664346,129.115975,69,"농산물, 생필품, 수산물, 잡화 등",영양사랑상품권온누리상품권,,Y,Y,1918,054-680-6314,2018-02-20,
반구시장,상설장,울산광역시 중구 반구정14길 13(반구동),울산광역시 중구 반구동 448-9,매일,35.5582648,129.3457993,153,"음식점, 주류, 잡화 등","온누리상품권, 전자상품권",,Y,Y,,052-297-2387,2018-02-20,
우정전통시장,상설장+5일장,울산광역시 중구 당산5길 9,울산광역시 중구 우정동 284-23,"매일+5일, 10일",35.5548812,129.3100508,75,"농수축산물, 식당, 생활잡화 등",온누리상품권,,Y,N,,,2018-02-20,
울산시장,상설장,울산광역시 중구 구교로 35(학산동),울산광역시 중구 학산동 47-10,매일,35.5554665,129.3283846,297,"한복, 침구류, 그릇, 생선, 잡화 등","온누리상품권, 전자상품권",,Y,Y,,052-296-1864,2018-02-20,
성남프라자,상설장,울산광역시 중구 중앙3길6(성남동),울산광역시 중구 성남동 190-239,매일,35.5545103,129.3175359,70,"한복, 침구류, 잡화 등","온누리상품권, 전자상품권",,Y,Y,,052-243-5678,2018-02-20,
선우시장,상설장,울산광역시 중구 곽남14길 37(남외동),울산광역시 중구 남외동 385-3,매일,35.5713199,129.3420992,84,"농수축산물, 과일류, 반찬류, 생활잡화 등","온누리상품권, 전자상품권",,Y,N,,,2018-02-20,
병영시장,상설장,울산광역시 중구 병영로 14(남외동),울산광역시 중구 남외동 257-1,매일,35.5705654,129.3463072,51,"농수산물, 과일류, 반찬류, 생활잡화 등",온누리상품권,,Y,N,,052-294-4929,2018-02-20,
역전시장,상설장,울산광역시 중구 구역전길 14(학성동),울산광역시 중구 학성동 436-20,매일,35.5561541,129.3284797,36,농수산물,온누리상품권,,Y,N,,052-296-8323,2018-02-20,
우정시장,상설장,울산광역시 중구 당산5길 10(우정동),울산광역시 중구 우정동 285-1,매일,35.5545331,129.3100727,15,의류 등,온누리상품권,,Y,N,,052-243-0262,2018-02-20,
학성종합시장,상설장,울산광역시 중구 새치로 28(학성동),울산광역시 중구 학성동 467-1,매일,35.5544211,129.3320577,9,"식료품, 식당, 잡화",,,Y,N,,052-297-4354,2018-02-20,
태화종합시장,상설장+5일장,울산광역시 중구 화진길 20-4(태화동),울산광역시 중구 태화동 36-13,"매일+5일, 10일",35.55420094,129.3074139,221,"농수축산물, 식료품, 잡화 등","온누리상품권, 전자상품권",,Y,Y,,052-211-7804,2018-02-20,
신울산종합시장,상설장,울산광역시 중구 서원6길 11(반구동),울산광역시 중구 반구동 100-1,매일,35.5612392,129.3373679,30,"농수축산물, 식료품, 잡화 등","온누리상품권, 전자상품권",,Y,Y,,052-297-2088,2018-02-20,
학성새벽시장,상설장,울산광역시 중구 새벽시장3길 21(학성동),울산광역시 중구 학성동 359-2,매일,35.5564943,129.3328475,197,"채소, 과일, 생선, 식자재 등","온누리상품권, 전자상품권",,Y,Y,,052-298-3619,2018-02-20,
중앙전통시장,상설장,울산광역시 중구 중앙시장길 2(옥교동),울산광역시 중구 옥교동 275-4,매일,35.5551774,129.3223004,324,"의류, 잡화, 곰장어, 식료품 등","온누리상품권, 전자상품권",,Y,Y,,052-246-6660,2018-02-20,
구역전시장,상설장,울산광역시 중구 구역전길 20(학성동),울산광역시 중구 학성동 434-7,매일,35.5570211,129.3284786,167,"농수축산물, 의류, 잡화 등","온누리상품권, 전자상품권",,Y,Y,,052-297-9310,2018-02-20,
서동시장,상설장,울산광역시 중구 동천2길 17(서동),울산광역시 중구 서동 39-3,매일,35.5819632,129.3465532,79,"농수축산물, 의류, 잡화 등","온누리상품권, 전자상품권",,Y,N,,052-293-7894,2018-02-20,
옥골시장,상설장,울산광역시 중구 중앙시장길 17-7(옥교동),울산광역시 중구 옥교동 125-13,매일,35.5552241,129.3229718,79,"농수축산물, 떡, 폐백, 죽 등","온누리상품권, 전자상품권",,Y,Y,,052-242-0015,2018-02-20,
구역전전통시장,상설장,울산광역시 중구 구역전길 8(학성동),울산광역시 중구 학성동 61-9,매일,35.5559093,129.3279529,45,"농수축산물, 식자재, 잡화 등",온누리상품권,,N,Y,,,2018-02-20,
월봉시장,상설,울산광역시 동구 화정6길 16(화정동),울산광역시 동구 화정동 640-18,매일,35.494631,129.425761,122,"의류, 과일, 농수축산물, 잡화 등",온누리상품권,없음,Y,Y,1980,052-234-8997,2018-01-01,
동울산종합시장,상설,울산광역시 동구 진성14길 77(전하동),울산광역시 동구 전하동 661-1,매일,35.509052,129.425456,112,"의류, 가구, 농수축산물, 잡화 등",온누리상품권,없음,Y,Y,1983,052-232-7337,2018-01-01,
대송농수산물시장,상설,울산광역시 동구 대송8길 6(화정동),울산광역시 동구 화정동 171-4,매일,35.499354,129.420604,120,"과일, 농수축산물, 잡화 등",온누리상품권,없음,Y,Y,1991,052-252-7344,2018-01-01,
전하시장,상설,울산광역시 동구 녹수7길 32(전하동),울산광역시 동구 전하동 450-32,매일,35.513947,129.430723,94,"의류, 농수축산물, 잡화 등",온누리상품권,없음,Y,Y,1999,,2018-01-01,
남목시장,상설,울산광역시 동구 남목17길 9(동부동),울산광역시 동구 동부동 310-2,매일,35.542916,129.427408,23,"의류, 농수축산물, 잡화 등",온누리상품권,없음,Y,Y,1978,,2018-01-01,
동부시장,상설,울산광역시 동구 남목17길 16(동부동),울산광역시 동구 동부동 310-15,매일,35.542814,129.428232,40,"의류, 농수축산물, 잡화 등",온누리상품권,없음,Y,Y,1979,,2018-01-01,
남목시티시장,상설,울산광역시 동구 남목18길 8(동부동),울산광역시 동구 동부동 303-3,매일,35.542936,129.428626,53,"의류, 농수축산물, 잡화 등",온누리상품권,없음,Y,Y,2013,,2018-01-01,
밤고개시장,상설장,대구광역시 서구 서대구로8길 64,대구광역시 서구 내당1동 13-1,매일,35.8620463734,128.563633029,161,,온누리상품권,,Y,N,1981,053-552-5070,2018-02-20,
새길시장,상설장,대구광역시 서구 서구 달서로6길 3,"대구광역시 서구 내당2,3동 968",매일,35.8649155678,128.571647074,76,,온누리상품권,,Y,N,1970,053-571-2459,2018-02-20,
원고개시장,상설장,대구광역시 서구 북비산로65길 6-3,대구광역시 서구 비산1동 569-2외,매일,35.8801882891,128.569158428,130,,온누리상품권,,Y,Y,2011,053-556-5573,2018-02-20,
서부시장,상설장,대구광역시 서구 달서로26길 7-2,"대구광역시 서구 비산2,3동 434",매일,35.8733090095,128.57204759,504,,온누리상품권,,Y,Y,1972,053-567-1544,2018-02-20,
만평시장,상설장,대구광역시 서구 달서천로41길 86,대구광역시 서구 비산7동 1247-1,매일,35.8883926134,128.562777768,73,,온누리상품권,,Y,N,1977,053-357-7171,2018-02-20,
서구시장,상설장,대구광역시 서구 국채보상로45길 33,대구광역시 서구 평리3동 1085-1,매일,35.8739365194,128.555691086,96,,온누리상품권,,Y,N,1979,053-567-0395,2018-02-20,
대평리시장,상설장,대구광역시 서구 문화로49길 25,대구광역시 서구 평리3동 676-7,매일,35.878010921,128.558933106,149,,온누리상품권,,Y,N,1981,053-567-9106,2018-02-20,
신평리시장,상설장,대구광역시 서구 국채보상로52길 33,대구광역시 서구 평리4동 1205,매일,35.868097144,128.560687401,162,,온누리상품권,,Y,Y,1980,053-566-9278,2018-02-20,
중평시장,상설장,대구광역시 서구 서대구로17길 16,대구광역시 서구 평리4동 1437-5,매일,35.8653698638,128.553907262,56,,온누리상품권,,Y,N,1982,053-566-6301,2018-02-20,
중리시장,상설장,대구광역시 서구 국채보상로31길 12,대구광역시 서구 평리5동 1538-3,매일,35.8702786703,128.547816338,143,,온누리상품권,,Y,N,1982,053-565-1653,2018-02-20,
이현시장,상설장,대구광역시 서구 문화로33길 24,대구광역시 서구 평리6동 606-8,매일,35.8769504684,128.550634542,38,,온누리상품권,,Y,N,1983,053-557-9437,2018-02-20,
원대신시장,상설장,대구광역시 서구 달서로54길 6,대구광역시 서구 원대3가 1434-4,매일,35.8855361207,128.57476976,56,,온누리상품권,,Y,Y,1968,053-357-2426,2018-02-20,
원대시장,상설장,대구광역시 서구 달서천로83길 13,대구광역시 서구 원대3가 1223-13,매일,35.8831031952,128.578052431,52,,온누리상품권,,Y,N,1976,053-357-3152,2018-02-20,
두류1번가,상설장,대구광역시 서구 달구벌대로 지하1827,대구광역시 서구 내당동 1290외,매일,35.8601755517,128.564743142,285,,온누리상품권,,Y,N,2005,053-652-8980,2018-02-20,
㈜중앙 메가프라자,상설장,대전광역시 동구 중앙로 200번길 99,대전광역시 동구 원동 42-1,매일,36.326879,127.433921,128,"한복,의류,침구,도서 등",온누리상품권,,Y,Y,1973,042-253-1550,2018-02-19,
신중앙,상설장,대전광역시 동구 중앙로 200번길 85,대전광역시 동구 원동 40-1,매일,36.327541,127.433653,131,"옷감,의류,도서,한복 등",온누리상품권,,Y,Y,1975,042-256-2157,2018-02-19,
중앙도매,상설장,대전광역시 동구 중앙로 200번길 99번지 일원,대전광역시 동구 원동 42-1,매일,36.326922,127.433911,128,"의류, 침구, 한복 등",온누리상품권,,Y,Y,1973,042-257-7093,2018-02-19,
중앙종합,상설장,대전광역시 동구 중앙로 200번길 45,대전광역시 동구 원동 56-1,매일,36.329051,127.432671,121,"의류, 신발, 커튼 등",온누리상품권,,Y,Y,1985,042-257-3713,2018-02-19,
자유도매,상설장,대전광역시 동구 중앙로 200번길 45,대전광역시 동구 원동 56-1,매일,36.329051,127.432671,103,"그릇, 이불, 한복, 의류 등",온누리상품권,,Y,Y,1981,042-221-0711,2018-02-19,
대전도매,상설장,대전광역시 동구 대전로 791번길 3,대전광역시 동구 중동 76-1,매일,36.330401,127.432882,125,"의류, 잡화, 가정 용품 등",온누리상품권,,Y,Y,1975,042-257-2410,2018-02-19,
중앙상가,상설장,대전광역시 동구 대전로 797번길 37,대전광역시 동구 중동 28-1,매일,36.330108,127.430938,443,"식당, 의류, 잡화 등",온누리상품권,,Y,Y,1962,042-256-0638,2018-02-19,
전통중앙도매,상설장,대전광역시 동구 중앙로 204번길 28-1,대전광역시 동구 중동 86-4,매일,36.329782,127.432416,120,"생선, 채소, 과일 등",온누리상품권,,Y,Y,2011,042-222-2989,2018-02-19,
대전상가,상설장,대전광역시 동구 충무로 185,대전광역시 동구 인동 52-1,매일,36.321909,127.436582,62,"쌀, 식당, 잡화 등",온누리상품권,,N,N,1973,042-284-6562,2018-02-19,
인동시장,상설장,대전광역시 동구 대전천동로 450,대전광역시 동구 인동 53-1,매일,36.322445,127.436273,61,"쌀, 식당 등",온누리상품권,,N,N,1973,042-282-1010,2018-02-19,
신도시장,상설장,대전광역시 동구 흥룡로 37번길 9,대전광역시 동구 가양동 39-11,매일,36.349309,127.447092,85,"채소, 생선, 건어물, 의류, 잡화 등",온누리상품권,,Y,Y,1982,042-622-7078,2018-02-19,
용운시장,상설장,대전광역시 동구 용운로 170,대전광역시 동구 용운동 305-6,매일,36.327831,127.461011,80,"식당, 채소, 잡화 등",온누리상품권,,Y,Y,1989,042-283-4698,2018-02-19,
가양시장,상설장,대전광역시 동구 매봉로 18,대전광역시 동구 가양동 434 가양시장,매일,36.346511,127.443218,15,"생·식품, 의류 등",온누리상품권,,Y,Y,1979,042-672-3783,2018-02-19,
역전시장 상점가,상설장,대전광역시 동구 역전시장길 48,대전광역시 동구 정동 1-227,매일,36.330135,127.434127,110,"의류, 휴대폰, 귀금속, 신발 등",온누리상품권,,N,N,1950,042-256-9915,2018-02-19,
홍도시장 상점가,상설장,대전광역시 동구 홍도로 9번길 20,대전광역시 동구 홍도동 71-2,매일,36.347151,127.429144,90,"생·식품, 의류 등",온누리상품권,,Y,Y,2016,042-672-8955,2018-02-19,
역전지하상점가,상설장,대전광역시 동구 대전로 797번길 41,대전광역시 동구 중동 28-53,매일,36.330033,127.430857,213,"생선, 채소, 과일 등",온누리상품권,,Y,Y,1980,042-221-3628,2018-02-19,
오류전통시장,상설장,대전광역시 중구 계백로 1691-10,대전광역시 중구 오류동 164-1,매일,36.321717,127.407813,61,"채소, 과일, 떡, 의류, 정육 등",온누리상품권,,N,N,1985,042-523-6780,2018-02-19,
태평전통시장,상설장,대전광역시 중구 수침로 55번길 56,대전광역시 중구 태평동 327-3,매일,36.325405,127.397651,142,"채소, 과일, 떡, 의류, 정육 등",온누리상품권,http://www.taepyung-market.kr/,Y,Y,1980,042-525-4388,2018-02-19,
유천전통시장,상설장,대전광역시 중구 문화로 105번길 113,대전광역시 중구 유천동 303-10,매일,36.317214,127.395493,79,"채소, 과일, 식당, 정육 등",온누리상품권,,Y,Y,1982,042-584-1670,2018-02-19,
그린상점가,상설장,전라북도 익산시 동서로19길 99(신동),전라북도 익산시 신동 789-6,상점가,35.9627720,126.9582040,81,"커피숍, 음식점 등",,,Y,Y,,,2018-01-02,
문창전통시장,상설장,대전광역시 중구 대전천 서로 279,대전광역시 중구 문창동 364-12,매일,36.315598,127.438317,269,"채소, 과일, 떡, 의류, 정육 등",온누리상품권,,Y,Y,1967,042-272-8903,2018-02-19,
산성전통시장,상설장,대전광역시 중구 대둔산로 408번길 28,대전광역시 중구 산성동 284-1,매일,36.306131,127.387105,75,"채소, 과일, 떡, 의류, 정육 등",온누리상품권,,Y,Y,1991,042-583-3128,2018-02-19,
용두전통시장,상설장,대전광역시 중구 계룡로 881번길 53,대전광역시 중구 용두동 12-2,매일,36.323396,127.414651,51,"채소, 과일, 식당, 잡화 등",온누리상품권,,N,N,1962,000-000-0000,2018-02-19,
부사전통시장,상설장,대전광역시 중구 대종로 316번길 16,대전광역시 중구 부사동 148-6,매일,36.314117,127.435381,72,"채소, 과일, 식당, 정육 등",온누리상품권,,Y,Y,1990,042-221-6664,2018-02-19,
중앙로지하상점가,상설장,대전광역시 중구 중앙로 지하 145,대전광역시 중구 은행동 216 중앙로역,매일,36.328666,127.425383,602,"의류, 휴대폰, 액세서리, 신발, 식음료(먹거리), 생활용품 등",온누리상품권,,Y,Y,1990,042-252-2064,2018-02-19,
은행동상점가,상설장,대전광역시 중구 중교로 83,대전광역시 중구 은행동 170-31,매일,36.327301,127.428506,297,"식당, 의류, 액세서리 등",온누리상품권,,Y,Y,1970,042-226-9100,2018-02-19,
문화예술의거리대흥동상점가,상설장,대전광역시 중구 중앙로 138번길 30,대전광역시 중구 대흥동 215,매일,36.327255,127.425287,61,"생필품, 요식업 등",온누리상품권,,Y,Y,1990,042-226-8252,2018-02-19,
오류특화상점가,상설장,대전광역시 중구 계룡로 874번길 12,대전광역시 중구 오류동 149-29,매일,36.323588,127.410468,61,요식업 등,온누리상품권,,Y,Y,1998,042-256-8106,2018-02-19,
중촌맞춤상점가,상설장,대전광역시 중구 동서대로 1421번길33,대전광역시 중구 중촌동 411-5,매일,36.336311,127.412516,50,"생필품, 의류 등",온누리상품권,,Y,Y,1998,042-257-2630,2018-02-19,
충무자동차상점가,상설장,대전광역시 중구 충무로 122-1,대전광역시 중구 대사동 69-46,매일,36.318798,127.430491,70,"서비스, 자동차용품 등",온누리상품권,,Y,Y,1999,042-256-7553,2018-02-19,
한민시장,상설장,대전광역시 서구 가장동94,대전광역시 서구 괴정동 88-6,매일,36.334685,127.384284,240,"생필품,농수산물 등",온누리상품권,,Y,Y,1982,042-522-9094,2018-02-19,
도마큰시장,상설장,대전광역시 서구 도마2길39,대전광역시 서구 도마동 134-40,매일,36.314918,127.381379,494,"생필품,의류,농수산물 등",온누리상품권,,Y,Y,1970,042-532-8883,2018-02-19,
가수원상점가,상설장,대전광역시 서구 벌곡로1369-22,대전광역시 서구 가수원동 768-10,매일,36.303417,127.352632,92,"생필품,가정용품 등",온누리상품권,,Y,Y,2007,042-541-1845,2018-02-19,
둔산3동상점가,상설장,대전광역시 서구 둔산로206,대전광역시 서구 둔산동 1814,매일,36.351267,127.396715,698,"생필품,요식업 등",온누리상품권,,Y,Y,1991,042-487-8439,2018-02-19,
유성시장,5일장,대전광역시 유성구 유성대로 730번길 24,대전광역시 유성구 장대동 191-7,5일,36.357719,127.333944,400,"농산물, 생필품, 수산물, 잡화 등",온누리상품권,,Y,Y,1916,042-822-2472,2018-02-19,
송강시장,상설장,대전광역시 유성구 구즉로 74-7,대전광역시 유성구 송강동 49-10,매일,36.435131,127.386659,88,"농산물, 생필품, 수산물, 잡화 등",온누리상품권,,Y,Y,2000,042-934-6863,2018-02-19,
송촌시장,상설장,대전광역시 대덕구 송촌동 476,대전광역시 대덕구 송촌동 476-1,매일,36.364478,127.439899,73,"농산물, 생필품, 수산물, 축산물, 잡화",온누리상품권,,Y,Y,2000,042-626-5778,2018-02-19,
중리시장,상설장,대전광역시 대덕구 중리동 370,대전광역시 대덕구 중리동 368-7,매일,36.365316,127.425801,213,"농산물, 생필품, 수산물, 축산물, 잡화",온누리상품권,www.jungni-market.kr,Y,Y,1988,070-8732-1042,2018-02-19,
법동시장,상설장,대전광역시 대덕구 법동 199,대전광역시 대덕구 법2동 199,매일,36.367216,127.430958,62,"농산물, 생필품, 수산물, 축산물, 잡화",온누리상품권,,Y,Y,1995,042-627-2123,2018-02-19,
신탄진시장,상설장,대전광역시 대덕구 석봉동 417,대전광역시 대덕구 석봉동 417,5일,36.448872,127.426263,122,"농산물, 생필품, 수산물, 축산물, 잡화",온누리상품권,,Y,Y,2002,042-931-0310,2018-02-19,
오정동상점가,상설장,대전광역시 대덕구 오정동 86,대전광역시 대덕구 오정동 87-2,매일,36.354173,127.409122,720,공구·식당·철물 등,온누리상품권,,N,N,2005,042-672-0005,2018-02-19,
송촌동상점가,상설장,대전광역시 대덕구 계족산로 81번길 54,대전광역시 대덕구 송촌동 459-6,매일,36.365524,127.439031,870,"생필품, 요식업 등",온누리상품권,,Y,Y,2016,000-000-0000,2018-02-19,
서남신시장,상설장,대구광역시 달서구 달구벌대로329길 10,대구광역시 달서구 감삼동 62-4,매일,35.854077,128.545928,114,,온누리상품권,,Y,Y,2006,053-562-1222,2018-02-13,
부전기장골목시장,상설장,부산광역시 부산진구 중앙대로775번길 21,부산광역시 부산진구 부전동 341-70,매일,35.1622011,129.0612531,61,"수산물,농산물등",,,n,n,1950,051-806-1245,2018-02-01,
양정전통시장,상설장,부산광역시 부산진구 동평로406번길 39,부산광역시 부산진구 양정동 389-9,매일,35.1721477,129.0691979,96,"과일,채소등",,,n,n,1970,051-896-0009,2018-02-01,
연지시장,상설장,부산광역시 부산진구 연지로 7-1,부산광역시 부산진구 연지동 179-5,매일,35.1707721,129.0507531,83,"과일,채소등",,,n,n,1970,,2018-02-01,
동평새시장,상설장,부산광역시 부산진구 동평로95번길 7-1,부산광역시 부산진구 당감동 282-68,매일,35.1659241,129.0397761,64,"과일,채소,의류등",,,n,n,1970,051-896-0366,2018-02-01,
당감새시장,상설장,부산광역시 부산진구 백양대로60번길 56,부산광역시 부산진구 당감동 292-127,매일,35.1648521,129.0422261,133,"과일,채소,어류등","온누리상품권, 전자상품권",,n,n,2007,051-897-6548,2018-02-01,
전포놀이터시장,상설장,부산광역시 부산진구 서전로67번길 26,부산광역시 부산진구 전포동 197-6,매일,35.1589441,129.0670911,80,"과일,채소,잡화 등","온누리상품권, 전자상품권",,n,n,1972,051-818-2212,2018-02-01,
개금골목시장,상설장,부산광역시 부산진구 가야공원로14번길 85,부산광역시 부산진구 개금동 173-5,매일,35.1518901,129.0249051,114,"과일,채소,잡화등","온누리상품권, 전자상품권",,n,n,1975,051-892-2606,2018-02-01,
당감골목시장,상설장,부산광역시 부산진구 당감로16번길 39-2,부산광역시 부산진구 당감동 238-89,매일,35.1638651,129.0417501,115,"과일,채소,잡화등","온누리상품권, 전자상품권",,n,n,1973,051-897-5992,2018-02-01,
골드테마거리,상설장,부산광역시 부산진구 범일로 134,부산광역시 부산진구 범천동 836-1,매일,35.1420981,129.0599211,490,"귀금속,보석류","온누리상품권, 전자상품권",http://www.goldthemest.com/,n,n,1998,051-633-3275,2018-02-01,
부전상가,상설장,부산광역시 부산진구 중앙대로755번길 21,부산광역시 부산진구 부전동 265-25,매일,35.1603451,129.0595691,704,농수축산물,"온누리상품권, 전자상품권",,y,n,1950,051-818-9454,2018-02-01,
부전농수산물새벽시장,상설장,부산광역시 부산진구 부전로 156,부산광역시 부산진구 부전동 347-1,매일,35.1622541,129.0583181,510,청과물 도매,"온누리상품권, 전자상품권",,n,n,1950,051-802-8251,2018-02-01,
월성청구,상설장,대구광역시 달서구 학산로 17,대구광역시 달서구 월성동 89-2,매일,35.827529,128.531119,24,,온누리상품권,,Y,Y,1993,,2018-02-13,
국제상가,상설장,부산광역시 부산진구 백양관문로 104-1,부산광역시 부산진구 당감동 791,매일,35.1684981,129.0283231,99,"과일,채소,잡화등",,,y,y,1995,051-895-9447,2018-02-01,
양정시장,상설장,부산광역시 부산진구 동평로420번길 18,부산광역시 부산진구 양정동 390,매일,35.1727501,129.0698091,145,"꽃,의류,활어 등","온누리상품권, 전자상품권",,y,y,1971,051-852-3465,2018-02-01,
가야벽산상가,상설장,부산광역시 부산진구 엄광로 68,부산광역시 부산진구 가야동 669-9,매일,35.1471355,129.0237381,61,"과일,채소,잡화등",,,y,y,1990,051-894-9490,2018-02-01,
서면지하상가,상설장,부산광역시 부산진구 중앙대로 지하 717,부산광역시 부산진구 부전동 573-1,매일,35.1593427,129.0603893,326,"의류,신발,잡화등",온누리상품권,http://undershop.bisco.or.kr/,y,n,1985,051-805-1782,2018-02-01,
가남종합시장,상설장,부산광역시 부산진구 대학로 66,부산광역시 부산진구 가야동 450-2,매일,35.1501681,129.0342571,2,잡화 등,,,y,n,1982,051-893-9513,2018-02-01,
대현프리몰부산점,상설장,부산광역시 부산진구 중앙대로 지하 717,부산광역시 부산진구 부전동 573-1,매일,35.1559829,129.0591467,320,"의류,신발,잡화등",,http://www.primall.co.kr/busan/,y,n,1982,051-802-8881,2018-02-01,
창곡종합시장,상설장,부산광역시 부산진구 새싹로 237,부산광역시 부산진구 초읍동 271-1,매일,35.1773483,129.0479169,50,"과일,채소,잡화등",,,y,y,1981,051-809-2191,2018-02-01,
부산전자종합시장,상설장,부산광역시 부산진구 부전로 196,부산광역시 부산진구 부전동 29,매일,35.1638081,129.0622771,135,가전제품류,"온누리상품권, 전자상품권",http://www.busantechnos.co.kr/,y,y,1981,051-809-0863,2018-02-01,
서면중앙시장,상설장,부산광역시 부산진구 동성로 143,부산광역시 부산진구 전포동 608-1,매일,35.1608551,129.0633141,341,"기계부속품,서점",,,y,y,1981,051-803-9884,2018-02-01,
새당감시장,상설장,부산광역시 부산진구 동평로44번길 46,부산광역시 부산진구 당감동 479-9,매일,35.1640411,129.0355321,36,"과일,채소,잡화등",,,y,n,1981,051-898-3642,2018-02-01,
서면종합시장,상설장,부산광역시 부산진구 부전로162번길 28,부산광역시 부산진구 부전동 347-40,매일,35.1619151,129.0590011,234,"농수산물,악기류","온누리상품권, 전자상품권",,y,y,1980,051-809-7816,2018-02-01,
초읍시장,상설장,부산광역시 부산진구 성지로83번길 11,부산광역시 부산진구 초읍동 225,매일,35.1774401,129.0530681,64,"과일,채소,잡화등",온누리상품권,,y,n,1980,051-809-0636,2018-02-01,
성곡종합시장,상설장,부산광역시 부산진구 새싹로 207-6,부산광역시 부산진구 초읍동271-6,매일,35.1748011,129.0482701,42,"과일,채소,잡화등",,,y,n,1978,051-809-0636,2018-02-01,
종합새시장,상설장,부산광역시 부산진구 냉정로160번길 26,부산광역시 부산진구 개금동 614-1,매일,35.1485281,129.0172961,70,,,,y,n,1978,051-892-8275,2018-02-01,
개금큰시장,상설장,부산광역시 부산진구 엄광로 15,부산광역시 부산진구 개금동 615-20,매일,35.1485211,129.0181111,25,"생선,건어물 등",,,y,n,1978,051-894-1271,2018-02-01,
부전인삼시장,상설장,부산광역시 부산진구 중앙대로783번길 23,부산광역시 부산진구 부전동 573-3,매일,35.1628421,129.0612971,76,"인삼,홍삼 등","온누리상품권, 전자상품권",,y,n,1978,051-819-4070,2018-02-01,
동아종합시장,상설장,부산광역시 부산진구 가야대로 497,부산광역시 부산진구 개금동 156-2,매일,35.1536681,129.0268131,130,컴퓨터 등,,,y,y,1977,051-893-1203,2018-02-01,
수양시장,상설장,부산광역시 부산진구 진사로 63-7,부산광역시 부산진구 개금동 632-3,매일,35.1458061,129.0168571,25,철물점 등,,,y,y,1975,051-802-7070,2018-02-01,
부전시장,상설장,부산광역시 부산진구 중앙대로783번길 23,부산광역시 부산진구 부전동 573,매일,35.1628421,129.0612971,344,농수축산물외 생필품,"온누리상품권, 전자상품권",,y,n,1975,051-818-1091,2018-02-01,
당감시장,상설장,부산광역시 부산진구 백양로60번길 39-9,부산광역시 부산진구 당감동 238-89,매일,35.1638651,129.0417501,43,농수축산물,"온누리상품권, 전자상품권",,y,n,1972,051-895-8297,2018-02-01,
서면시장,상설장,부산광역시 부산진구 서면로 56,부산광역시 부산진구 부전동 256-6,매일,35.1559976,129.0581502,210,농수축산물,"온누리상품권, 전자상품권",,y,n,1972,051-806-5025,2018-02-01,
가야시장,상설장,부산광역시 부산진구 가야대로 667,,매일,35.1565485,129.0447265,53,잡화(생필품)등,,,y,n,1971,051-892-8796,2018-02-01,
부산평화시장,상설장,부산광역시 부산진구 자유평화로 7,부산광역시 부산진구 범천동 839-52,매일,35.1419969,129.0609702,540,"의류,신발등","온누리상품권, 전자상품권",http://www.bsph.kr/,y,n,1970,051-646-6561,2018-02-01,
봉일시장,상설장,서울특별시 관악구 은천로 28,서울특별시 관악구 은천동 951-25,매일,37.4850831667,126.952728894,35,농·수산물 등,온누리상품권,bongilplaza.co.kr,Y,Y,1971,02-874-1500,2018-01-01,
봉천현대시장,상설장,서울특별시 관악구 양녕로 49,서울특별시 관악구 은천동 502-4,매일,37.4841664044,126.949495792,33,농·수산물 등,온누리상품권,,Y,Y,1972,02-882-0492,2018-01-01,
봉천제일종합시장,상설장,서울특별시 관악구 청룡2길 29,서울특별시 관악구 청룡동 921-1,매일,37.481248459,126.944414518,48,농·수산물 등,,,Y,N,1976,02-878-8881,2018-01-01,
봉천중앙시장,상설장,서울특별시 관악구 관악로 211,서울특별시 관악구 중앙동 32-2,매일,37.4841972026,126.954325942,36,농·수산물 등,온누리상품권,,Y,Y,1969,02-876-5574,2018-01-01,
신림종합시장,상설장,서울특별시 관악구 남부순환로157길 63,서울특별시 관악구 신사동 505-1,매일,37.4846454683,126.917095147,25,농·수산물 등,온누리상품권,,Y,N,1977,02-856-4556,2018-01-01,
신신림시장,상설장,서울특별시 관악구 원신2길 34,서울특별시 관악구 삼성동 390-1,매일,37.470660593,126.93214563,11,농·수산물 등,온누리상품권,,Y,N,1971,,2018-01-01,
신림중앙시장,상설장,서울특별시 관악구 조원로16길 27,서울특별시 관악구 조원동 541,매일,37.4831456768,126.911420982,140,농·수산물 등,,,Y,Y,1978,,2018-01-01,
원당종합시장,상설장,서울특별시 관악구 남부순환로248길 35,서울특별시 관악구 인헌동 1638-20,매일,37.4744161519,126.965908322,7,농·수산물 등,온누리상품권,,Y,N,1980,02-888-0930,2018-01-01,
우림시장,상설장,서울특별시 관악구 난곡로26길 4,서울특별시 관악구 난곡동 637-1,매일,37.4702964937,126.920443558,17,농·수산물 등,온누리상품권,,Y,N,1977,02-853-1866,2018-01-01,
관악종합시장,상설장,서울특별시 관악구 신원로 23,서울특별시 관악구 신원동 1602-1,매일,37.4817283471,126.925740833,57,농·수산물 등,온누리상품권,,Y,N,1996,02-856-4355,2018-01-01,
신림현대종합상가,상설장,서울특별시 관악구 신림로29길 8,서울특별시 관악구 서림동 1694,매일,37.4755696757,126.932810464,43,농·수산물 등,,,Y,N,1993,02-875-4271,2018-01-01,
신원시장,상설장,서울특별시 관악구 신원로3길 20-3,서울특별시 관악구 신원동 1587-26,매일,37.4820645397,126.927377646,119,농·수산물 등,온누리상품권,sinwonsijang.com,Y,Y,1980,02-854-5453,2018-01-01,
관악신사시장,상설장,서울특별시 관악구 난곡로74길 58,서울특별시 관악구 신사동 494-7,매일,37.486303233,126.916966678,100,농·수산물 등,온누리상품권,kwanaksinsa.alltheway.kr,Y,Y,1977,02-855-1994,2018-01-01,
조원동 펭귄시장,상설장,서울특별시 관악구 남부순환로143나길 7,서울특별시 관악구 조원동 541-6,매일,37.4828606593,126.911023334,73,농·수산물 등,온누리상품권,,N,N,1978,02-857-3810,2018-01-01,
인헌시장,상설장,서울특별시 관악구 인헌6길 16,서울특별시 관악구 인헌동 1638-22,매일,37.4740990251,126.966007951,52,농·수산물 등,온누리상품권,inhunmarket.com,N,Y,1980,070-8104-2665,2018-01-01,
서원동상점가,상설장,서울특별시 관악구 원신1길 28-1,서울특별시 관악구 삼성동 808-495,매일,37.4705168626,126.932900902,228,농·수산물 등,,,Y,N,1970,02-889-1233,2018-01-01,
중앙시장,상설장,경상북도 문경시 중앙시장 32-9 일원,경상북도 문경시 점촌동 159-1번지 일원,매일,36.5945028,128.1981941,200,"농산물, 생필품, 수산물, 잡화 등",온누리상품권,-,Y,Y,1954,054-556-1230,2018-02-19,
(유)중앙시장,상설장,경상북도 문경시 중앙로 87,경상북도 문경시 점촌동 197-14번지,매일,36.594478,128.197188,60,"은행, 식당, 과일 등",온누리상품권,-,Y,Y,1997,054-555-2402,2018-02-19,
신흥시장,상설장,경상북도 문경시 신흥시장길 19 일원,경상북도 문경시 흥덕동 794-1번지 일원,"매일,3일, 8일",36.602161,128.204312,110,"농산물, 생필품, 수산물, 잡화 등",온누리상품권,-,Y,Y,1995,054-553-3208,2018-02-19,
문경시장,5일장,경상북도 문경시 문경읍 주흘로 33 일원,경상북도 문경시 문경읍 하리 90-1번지 일원,"2일, 7일",36.736374,128.107281,52,"농산물, 생필품, 수산물, 잡화 등",온누리상품권,-,Y,Y,1965,054-571-0492,2018-02-19,
가은아자개시장,상설장,경상북도 문경시 가은읍 가은5길 7 일원,경상북도 문경시 가은읍 왕릉리 275-26번지 일원,"매일,4일, 9일",36.646798,128.060868,57,"농산물, 생필품, 수산물, 잡화 등",온누리상품권,-,Y,Y,1981,054-571-9811,2018-02-19,
농암시장,5일장,경상북도 문경시 농암면 농암2길 12 일원,경상북도 문경시 농암면 농암리 195-44번지 일원,"5일, 10일",36.6012591,128.0054054,2,"농산물, 생필품, 수산물, 잡화 등",없음,-,Y,Y,1981,054-571-3001,2018-02-19,
동로시장,5일장,경상북도 문경시 동로면 여우목로 2788-2 일원,경상북도 문경시 동로면 적성리 559-1번지 일원,"3일,8일",36.773826,128.3145235,4,"농산물, 생필품, 수산물, 잡화 등",없음,-,Y,Y,1965,054-552-8002,2018-02-19,
한민시장,상설장,대전광역시 서구 가장동94(괴정동),대전광역시 서구 괴정동 88-6,매일,36.3345827041,127.384266272,240,"생필품,농수산물",온누리상품권,,Y,Y,2006,042-522-9094,2018-02-13,
통복시장,상설+오일장,경기도 평택시 통복시장로 25번길 10,경기도 평택시 통복동 70-29,"매일(5일, 10일)",36.997786,127.085074,625,"농산물, 생필품, 수산물,잡화 등",온누리상품권,http://tongbokmk.modoo.at/,Y,Y,2005,031-658-0489,2018-02-19,
중앙시장,상설,경기도 평택시 중앙시장로 18-4,경기도 평택시 신장동 318-24,매일,37.079828,127.052358,183,"농산물, 생필품, 수산물,잡화 등",온누리상품권,없음,Y,Y,2005,031-647-3009,2018-02-19,
서정시장,상설+오일장,경기도 평택시 서정역로 47번길 20,경기도 평택시 서정동 317-15,"매일(2일, 7일)",37.057191,127.054925,173,"농산물, 생필품, 수산물,잡화 등",온누리상품권,없음,Y,Y,2006,031-666-4676,2018-02-19,
안중시장,상설+오일장,경기도 평택시 안중읍 안현로서3길 29,경기도 평택시 안중읍 안중리 267-1,"매일(1일, 6일)",36.987444,126.928291,172,"농산물, 생필품, 수산물,잡화 등",온누리상품권,없음,Y,Y,2006,031-686-9979,2018-02-19,
송북시장,상설+오일장,경기도 평택시 탄현로346번길 24,경기도 평택시 지산동 745-14,"매일(4일, 9일)",37.082068,127.057097,130,"농산물, 생필품, 수산물,잡화 등","온누리상품권, 전자상품권",http://www.sbsijang.co.kr/,Y,Y,2006,031-662-3368,2018-02-19,
서문시장2지구 종합상가,상설장,대구광역시 중구 큰장로28길 25,대구광역시 중구 대신동 115-67,매일,35.870075,128.580790,1494,"농산물, 생필품, 수산물, 잡화 등",온누리상품권+전자상품권,http://www.seomun.net/,Y,Y,1915,053-257-2289,2018-01-01,
염매시장,상설장,대구광역시 중구 종로 8,대구광역시 중구 덕산동 38,매일,35.866732,128.592380,116,"농산물, 생필품, 수산물, 잡화 등",온누리상품권+전자상품권,,Y,Y,1962,053-252-3831,2018-01-01,
동국철물시장,상설장,대구광역시 중구 북성로 45,대구광역시 중구 수창동 94-1,매일,35.873755,128.586506,13,철물,온누리상품권+전자상품권,,Y,N,1969,053-255-0675,2018-01-01,
교동시장,상설장,대구광역시 중구 교동2길 11,대구광역시 중구 교동 51-1,매일,35.873340,128.597787,240,"전자,농산물",온누리상품권+전자상품권,,Y,Y,1971,053-427-0443,2018-01-01,
중앙시장,상설장,대구광역시 중구 경상감영길 101,대구광역시 중구 포정동 21-3,매일,35.872582,128.593213,40,잡화,온누리상품권+전자상품권,,Y,N,1972,053-257-3630,2018-01-01,
서문시장제1지구직물시장,상설장,대구광역시 중구 큰장로28길 10,대구광역시 중구 대신동 115-379,매일,35.869408,128.579856,383,"이불,커튼",온누리상품권+전자상품권,http://www.seomun.net/,Y,Y,1974,053-254-9870,2018-01-01,
중곡제일골목시장,상설장,서울특별시 광진구 긴고랑로11길 14 (중곡동),서울특별시 광진구 중곡동 221-6,매일,37.5638839976,127.081765646,143,"농산물, 생필품, 과일 등",온누리상품권,http://junggokmarket.co.kr/main_category/market/market1.html,Y,Y,1970,02-466-5003,2018-02-21,
자양골목시장,상설장,서울특별시 광진구 자양로13길 59 (자양동),서울특별시 광진구 자양동 631-18,매일,37.5337979782,127.081592494,135,"농산물, 생필품, 과일 등",온누리상품권,http://blog.naver.com/oowwqqpp,Y,Y,1972,02-458-1624,2018-02-21,
노룬산골목시장,상설장,서울특별시 광진구 뚝섬로 491 (자양동),서울특별시 광진구 자양동 44-2,매일,37.5364861176,127.064877166,52,"농산물, 생필품, 과일 등",온누리상품권,,Y,N,1970,02-465-2103,2018-02-21,
영동교골목시장,상설장,서울특별시 광진구 동일로10길 30 (자양동),서울특별시 광진구 자양동 246-111,매일,37.538015022,127.063389476,94,"농산물, 생필품, 과일 등",온누리상품권,,N,N,1970,02-463-9686,2018-02-21,
화양제일골목시장,상설장,서울특별시 광진구 아차산로29길 59 (화양동),서울특별시 광진구 화양동 34-72,매일,37.5434897846,127.069291763,86,"농산물, 생필품, 과일 등",온누리상품권,,N,N,1980,02-465-6221,2018-02-21,
신내당시장,상설장,대구광역시 달서구 야외음악당로39길 62,대구광역시 달서구 두류동 486-1,매일,35.854633,128.553876,95,,온누리상품권,,Y,N,1981,053-651-3940,2018-02-13,
두류종합시장,상설장,대구광역시 달서구 당산동길 9,대구광역시 달서구 성당동 704-5,매일,35.845499,128.545161,138,,온누리상품권,,Y,N,1984,053-651-1301,2018-02-13,
서남시장,상설장,대구광역시 달서구 달구벌대로329길 17,대구광역시 달서구 감삼동 55-5,매일,35.854376,128.5451725,132,,온누리상품권,,Y,Y,1984,053-565-3226,2018-02-13,
월배시장,상설장,대구광역시 달서구 월배로24길 13,대구광역시 달서구 진천동 241-3,매일,35.814063,128.527415,105,,온누리상품권,,Y,N,1985,053-632-3265,2018-02-13,
송경종합시장,상설장,대구광역시 달서구 앞산순환로49길 73,대구광역시 달서구 송현동 1941-3,매일,35.8270982258,128.551535,20,,온누리상품권,,Y,N,1988,053-624-9007,2018-02-13,
서대구시장,상설장,대구광역시 달서구 명덕로2길 30,"대구광역시 달서구 두류동 1216-1,5",매일,35.860513,128.570867,35,,온누리상품권,,Y,N,1970,053-626-9981,2018-02-13,
달서송림,상설장,대구광역시 달서구 구마로 176,대구광역시 달서구 본동 225-1,매일,35.83685349,128.547078,18,,온누리상품권,,N,N,1983,053-624-1271,2018-02-13,
달서시장,상설장,대구광역시 달서구 당산로 35,"대구광역시 달서구 본리동 145-2,5",매일,35.840377,128.544197,265,,온누리상품권,,Y,N,2006,053-524-5716,2018-02-13,
와룡시장,상설장,대구광역시 달서구 성서서로 69-7,대구광역시 달서구 신당동 1788-3,매일,35.855824,128.499341,206,,온누리상품권,,Y,N,2006,053-588-5652,2018-02-13,
송현주공시장,상설장,대구광역시 달서구 송현로12안길 38,대구광역시 달서구 송현동 1948-3,매일,35.822674,128.5481762,55,,온누리상품권,,Y,Y,2007,,2018-02-13,
대동시장,상설장,대구광역시 달서구 상원로 22-24,대구광역시 달서구 상인동 1472-1,매일,35.811678,128.537817,100,,온누리상품권,,Y,N,2007,053-635-2250,2018-02-13,
대곡시장,상설장,대구광역시 달서구 도원로 24,대구광역시 달서구 도원동 1432,매일,35.807592,128.5354576,72,,온누리상품권,,Y,N,2007,053-638-1195,2018-02-13,
도원시장,상설장,대구광역시 달서구 도원로 동길 8,대구광역시 달서구 도원동 1437-1,매일,35.807608,128.536764,54,,온누리상품권,,Y,N,2007,,2018-02-13,
상원시장,상설장,대구광역시 달서구 상인로 9,대구광역시 달서구 상인동 1582-4,매일,35.809041,128.551324,77,,온누리상품권,,Y,N,2008,,2018-02-13,
성서용산시장,상설장,대구광역시 달서구 성지로 66-1,대구광역시 달서구 용산동 421-1,매일,35.855143,128.521388,149,,온누리상품권,,Y,N,2009,053-583-0233,2018-02-13,
용산종합큰시장,상설장,대구광역시 달서구 달구벌대로301길 187-11,대구광역시 달서구 용산동 933,매일,35.858059,128.531186,51,,온누리상품권,,Y,N,1910,053-559-1616,2018-02-13,
대구예전우시장,상설장,대구광역시 달서구 야외음악당로47길 111,대구광역시 달서구 두류동 136-6,매일,35.858576,128.562006,73,,온누리상품권,,Y,N,1911,053-656-5716,2018-02-13,
월배신시장,상설장,대구광역시 달서구 월배로28안길 54,대구광역시 달서구 진천동 239-23,매일,35.813249,128.527918,53,,온누리상품권,,Y,N,1913,053-638-5253,2018-02-13,
신내당시장 상점가,상설장,대구광역시 달서구 달구벌대로 1726-16,대구광역시 달서구 두류동 489-6,매일,35.855805,128.554591,78,,온누리상품권,,Y,N,2009,053-629-8015,2018-02-13,
성서아울렛타운,상설장,대구광역시 달서구 달서대로 431,대구광역시 달서구 호림동 20-1,매일,35.837855,128.491391,123,,온누리상품권,,Y,N,2013,053-586-1164,2018-02-13,
성서보성화성상가,상설장,대구광역시 달서구 계대동문로 99,대구광역시 달서구 이곡동 1191,매일,35.856233,128.503132,10,,온누리상품권,,Y,N,1994,053-582-5236,2018-02-13,
보성은하상가,상설장,대구광역시 달서구 월곡로 320,대구광역시 달서구 상인동 42,매일,35.822537,128.535295,18,,온누리상품권,,Y,N,1994,053-638-0552,2018-02-13,
상인영남화성상가,상설장,대구광역시 달서구 상인서로 76,대구광역시 달서구 상인동 1517,매일,35.817301,128.542965,31,,온누리상품권,,Y,N,1993,053-637-1407,2018-02-13,
두류신시장,상설장,대구광역시 달서구 당산동길 27,대구광역시 달서구 성당동 706-21,매일,35.84527578,128.5462282,73,,온누리상품권,,N,N,1905,,2018-02-13,
두류젊음의 광장,상설장,대구광역시 달서구 달구벌대로344길 1,대구광역시 달서구 두류동 490-5,매일,35.85598482,128.553824,53,,온누리상품권,,N,N,1905,053-651-2200,2018-02-13,
보은전통시장,5일장,충청북도 보은군 보은읍 삼산로 17-6,충청북도 보은군 보은읍 삼산리 137번지 일원,"1,6",36.4839597723,127.720046905,35,"야채,과일 등",온누리 및 지역상품권,무,Y,Y,1964,043-540-3232,2018-02-19,
보은종합시장,5일장,충청북도 보은군 보은읍 삼산로 3길 12,충청북도 보은군 보은읍 삼산리 135번지 일원,"1,6",36.4830270811,127.719301772,107,"의류,이불 등",온누리 및 지역상품권,무,Y,Y,1964,043-540-3232,2018-02-19,
회인시장,5일장,충청북도 보은군 회인면 회인로 34,충청북도 보은군 회인면 중앙리 59-15번지 일원,"4,9",36.4905208372,127.597858318,32,"정육,과일 등",온누리 및 지역상품권,무,N,N,1981,043-540-3232,2018-02-19,
원남시장,5일장,충청북도 보은군 삼승면 원남로 3길 9-1,충청북도 보은군 마로면 원남리 190번지 일원,"3,8",36.3964263341,127.733033816,55,"요식업, 방앗간 등",온누리 및 지역상품권,무,Y,Y,1960,043-540-3232,2018-02-19,
관기시장,5일장,충청북도 보은군 마로면 관기4길 1,충청북도 보은군 삼승면 관기리 293번지 일원,"4,9",36.4350820255,127.820036499,78,"미용실,슈퍼 등",온누리 및 지역상품권,무,Y,Y,1964,043-540-3232,2018-02-19,
북부산시장,상설장,부산광역시 사상구 사상로285번길 8-3(덕포동),부산광역시 사상구 덕포1동 422-16,매일,35.1706422062,128.981945703,139,잡화,,,Y,N,1978,051-301-7552,2018-02-19,
경동인츠빌,상설장,부산광역시 사상구 냉정로120(주례동),부산광역시 사상구 주례2동 55-139,매일,35.1494073455,129.013389844,23,잡화,,,Y,Y,2005,051-893-9171,2018-02-19,
녹번시장,상설장,서울특별시 은평구 은평로 204-4(응암동),서울특별시 은평구 응암동 74-7,매일,37.600932,126.930687,30,"농수축산물, 생필품, 잡화 등",,,N,N,1966,02-353-5334,2018-02-14,
연서시장,상설장,서울특별시 은평구 통일로 850(불광동),서울특별시 은평구 불광동 310-118,매일,37.6192792,126.922238,117,"농수축산물, 생필품, 잡화 등",온누리상품권,,Y,N,1975,02-355-1272,2018-02-14,
역촌중앙시장,상설장,서울특별시 은평구 연서로17길 18-6(갈현동),서울특별시 은평구 갈현동 467-1,매일,37.613245,126.916164,56,"농수축산물, 생필품, 잡화 등",온누리상품권,,N,N,1970,02-359-8595,2018-02-14,
증산종합시장,상설장,서울특별시 은평구 증산로3길 12(증산동),서울특별시 은평구 증산동 184-9,매일,37.581473,126.9050606,60,"농수축산물, 생필품, 잡화 등",온누리상품권,,N,N,1978,02-373-5990,2018-02-14,
대림시장,상설장,서울특별시 은평구 응암로4길 22(응암동),서울특별시 은평구 응암동 754-1,매일,37.5868514,126.9177112,104,"농수축산물, 생필품, 잡화 등",온누리상품권,,Y,N,1979,02-302-1666,2018-02-14,
양지시장,상설장,서울특별시 은평구 응암로4길 20(응암동),서울특별시 은평구 응암동 754-1,매일,37.586516,126.917544,1,"농수축산물, 생필품, 공산품 등",온누리상품권,,Y,N,1972,02-302-6729,2018-02-14,
응암시장,상설장,서울특별시 은평구 응암로 252(응암동),서울특별시 은평구 응암동 427-126,매일,37.594456,126.918435,10,"생필품, 잡화 등",온누리상품권,,N,N,1970,02-355-0727,2018-02-14,
제일시장,상설장,서울특별시 은평구 통일로 731(대조동),"서울특별시 은평구 대조동 14-1, 14-21",매일,37.610306,126.929164,46,"농수축산물, 생필품, 잡화 등",온누리상품권,,N,N,1970,02-352-1993,2018-02-14,
대조시장,상설장,서울특별시 은평구 불광로 13(대조동),"서울특별시 은평구 대조동 12, 26번지 일대",매일,37.609065,126.926346,180,"농수축산물, 생필품, 잡화 등",온누리상품권,,N,N,2011,02-382-5599,2018-02-14,
신응암시장,상설장,서울특별시 은평구 응암로22길 3-1(응암동),서울특별시 은평구 응암동 427-130~113,매일,37.594087,126.918827,56,"농수축산물, 생필품, 잡화 등",온누리상품권,,N,N,2011,02-389-3330,2018-02-14,
대림골목시장,상설장,서울특별시 은평구 응암로12길 8(응암동),"서울특별시 은평구 응암동 602-1~31, 750-1~695-22 일대",매일,37.587576,126.917264,69,"농수축산물, 생필품, 잡화 등",온누리상품권,,Y,N,2011,02-373-8612,2018-02-14,
연신내상점가,상설장,서울특별시 은평구 통일로85길 6-12(갈현동),서울특별시 은평구 갈현동 393~400번지 일대,매일,37.619552,126.918668,205,"생필품, 잡화, 식품 등",온누리상품권,,N,N,2011,070-8927-3254,2018-02-14,
서창시장,5일장,경상남도 양산시 서창서2길5,경상남도 양산시 삼호동 525,4일+9일,35.418414,129.171678,37,농수축산+생필+식당+잡화,온누리상품권,,Y,Y,1919,,2018-02-14,
석계시장,5일장,경상남도 양산시 상북면 삼계4길 2,경상남도 양산시 상북면 석계리 34-9,4일+ 9일,35.421055,129.063893,30,농수축산+생필+식당+잡화,온누리상품권,,Y,N,1954,,2018-02-14,
신평시장,5일장,경상남도 양산시 하북면 신평강변3길11,경상남도 양산시 하북면 순지리 575,3일+ 8일,35.492272,129.085781,48,농수축산+생필+식당+잡화,온누리상품권,,Y,N,1962,,2018-02-14,
양산남부시장,상설장,경상남도 양산시 중앙로 133,경상남도 양산시 중부동 423-5,매일+1일+6일,35.344978,129.344978,231,농수산물+생필+ 잡화,온누리상품권+전자상품권,,Y,Y,1978,055-386-2553,2018-02-14,
양산남부시장상가,상설장,경상남도 양산시 장터3길 7,경상남도 양산시 중부동 420-11,매일+1일+6일,35.345061,129.036341,122,농수산물+생필+잡화,온누리상품권+전자상품권,,Y,Y,1995,055-386-5236,2018-02-14,
양산북부시장,상설장,경상남도 양산시 중앙로 232,경상남도 양산시 북부동 148-19,매일,35.352687,129.041206,113,축산+가구+전기재료+ 세탁+식당,온누리상품권,,Y,Y,1988,055-387-5520,2018-02-14,
덕계종합상설시장,상설장,경상남도 양산시 덕계2길7,경상남도 양산시 덕계동 754-1,매일,35.371982,129.146414,229,농수축산+생필+식당+잡화,온누리상품권,,Y,Y,1995,055-387-7414,2018-02-14,
화지중앙시장,상설장,충청남도 논산시 대화로 78,충청남도 논산시 대교동 48-32,매일,36.2084766,127.0850402,308,"채소, 수산물 등",온누리상품권,http://www.traffer.com/specialmarket/sm_main.action?specialMarket.id=1051,Y,Y,1971,041-735-3311,2018-02-13,
연무안심시장,상설장,충청남도 논산시 연무읍 연무로178번길 9,충청남도 논산시 연무읍 안심리 14-2,매일,36.1300382,127.0982666,100,"채소, 수산물 등",온누리상품권,http://market.chungnam.net/html/ansim/,Y,Y,1945,041-741-4985,2018-02-13,
강경대흥시장,상설장,충청남도 논산시 강경읍 계백로105번길 8-4,충청남도 논산시 강경읍 대흥리 48-32,매일,36.1555254,127.0129737,110,"채소, 수산물 등",온누리상품권,http://market.chungnam.net/html/daeheung/,Y,Y,1955,041-745-5150,2018-02-13,
고려쇼핑센터,상설장,부산광역시 사상구 사상로201(괘법동),부산광역시 사상구 괘법동 533,매일,35.1631456957,128.980986801,260,"의류,잡화",,,Y,Y,1985,051-313-3915,2018-02-19,
우신종합상가,상설장,부산광역시 사상구 백양대로884(모라1동),부산광역시 사상구 모라1동 1362,매일,35.1850924521,128.991451322,152,잡화,,,Y,Y,1992,051-312-7400,2018-02-19,
구덕대림상가,상설장,부산광역시 사상구 학감대로49번길 56(학장동),부산광역시 사상구 학장동 167-3,매일,35.1356335669,128.992694293,38,잡화,,,Y,N,1992,051-311-9209,2018-02-19,
학장반도보라상가,상설장,부산광역시 사상구 대동로94(학장동),부산광역시 사상구 학장동 573-1,매일,35.1379347769,128.978313178,138,잡화,온누리상품권,,Y,Y,1994,051-323-6453,2018-02-19,
영해종합시장,상설장,부산광역시 사상구 학감대로111(학장동),부산광역시 사상구 학장동 570-2,매일,35.1408963589,128.987653099,74,축산물,,,Y,Y,1995,051-327-1151,2018-02-19,
부산산업용재유통상가,상설장,"부산광역시 사상구 새벽로131,133(감전동)",부산광역시 사상구 감전동 152-2,매일,35.1532254845,128.981430914,851,산업용품,,,Y,Y,1995,051-324-3913,2018-02-19,
주례현대무지개상가,상설장,부산광역시 사상구 주례로93(주례3동),부산광역시 사상구 주례3동 530-5,매일,35.1449651833,129.004986004,89,잡화,온누리상품권,,Y,Y,1996,051-324-6551,2018-02-19,
부산광역시철강판매협동조합,상설장,부산광역시 사상구 강변대로532번길일원(엄궁동),부산광역시 사상구 엄궁동 642-3,매일,35.134664935,128.966601338,52,철강,,,Y,Y,1996,051-323-4670,2018-02-19,
부산산업용품상협동조합,상설장,부산광역시 사상구 괘감로37(괘법동),부산광역시 사상구 괘법동 578,매일,35.1597554842,128.980434906,1216,산업용품,온누리상품권,,Y,Y,1998,051-319-0900,2018-02-19,
㈜르네시떼,상설장,부산광역시 사상구 광장로7(괘법동),부산광역시 사상구 괘법동 529-1,매일,35.1632590238,128.987929465,2620,의류,온누리상품권,,Y,Y,1999,051-319-5000,2018-02-19,
부산광역시건축자재판매협동조합,상설장,부산광역시 사상구 강변대로570 일원(엄궁동),부산광역시 사상구 엄궁동 642,매일,35.132871539,128.965382228,70,건축자재,,,Y,Y,1997,051-315-7400,2018-02-19,
부산새벽시장,상설장,부산광역시 사상구 새벽로141(감전동),부산광역시 사상구 감전동 143-12,매일,35.157658023,128.975770921,320,농축수산물,온누리상품권,,Y,Y,1982,051-323-9002,2018-02-19,
원광온누리상점가,상설장,전라북도 익산시 동서로19길 88(신동),전라북도 익산시 신동 786-21,상점가,35.9617510,126.9583900,76,,,,Y,Y,2005,,2018-01-02,
복이 있는 덕포시장,상설장,부산광역시 사상구 사상로293번길 12일원(덕포1동),부산광역시 사상구 덕포1동 421-13,매일,35.1712823785,128.982255374,190,잡화,온누리상품권,,N,N,1981,051-303-8393,2018-02-19,
주례럭키종합상가,상설장,부산광역시 사상구 가야대로 284번길2(주례3동),부산광역시 사상구 주례3동 595,매일,35.1498004721,129.003594892,67,잡화,,,Y,Y,1989,051-311-3650,2018-02-19,
모라전통시장,상설장,부산광역시 사상구 모라로46번길일원(모라1동),부산광역시 사상구 모라1동 658-11,매일,35.1885291201,128.985660138,71,"농축수산,잡화",온누리상품권,,N,N,1963,051-305-7919,2018-02-19,
사상시장,상설장,부산광역시 사상구 사상로250번길(괘법동),부산광역시 사상구 괘법동 433,매일,35.1666834533,128.985734547,206,잡화,,,N,N,1941,,2018-02-19,
감전제일상가,상설장,부산광역시 사상구 새벽로168번길 21(감전동),부산광역시 사상구 감전동 121-12,매일,35.155963489,128.984609255,18,생선및잡화,,,Y,N,1977,051-328-3917,2018-02-19,
외동전통시장,상설장,경상남도 김해시 내외중앙로 35,경상남도 김해시 외동 1254-2,매일,35.2329342,128.8660224,151,"농.수산물,어류,잡화등",온누리상품권,,Y,N,1997,070-8825-5222,2018-02-18,
삼방전통시장,상설장,경상남도 김해시 삼안로255번안길 6-5,경상남도 김해시 삼방동 669-1,매일,35.2500968,128.9095057,78,"농.수산물,어류,잡화등",온누리상품권,,Y,Y,1990,055-336-0021,2018-02-18,
진례전통시장,5일장,경상남도 김해시 진례면 송현로 6,경상남도 김해시 진례면 송정리 239-3,"5일, 10일",35.2488498,128.7489411,36,"농.수산물,어류,잡화등",온누리상품권,,Y,Y,1957,,2018-02-18,
진영전통시장,5일장,경상남도 김해시 진영읍 진영로160번길 13-4,경상남도 김해시 진영읍 진영리 235-10,"4일, 9일",35.302694,128.7304684,71,"농.수산물,어류,잡화등",온누리상품권,,Y,Y,1935,,2018-02-18,
장유전통시장,5일장,경상남도 김해시 장유로 287-22,경상남도 김해시 무계동 189-3,"3일, 8일",35.200615,128.814923,110,"농.수산물,어류,잡화등",온누리상품권,,Y,Y,1960,055-312-3830,2018-02-18,
김해(동상)전통시장,상설장,경상남도 김해시 호계로 517,경상남도 김해시 동상동 881-1,매일,35.2360545,128.8834099,170,"농.수산물,어류,잡화등",온누리상품권,,Y,Y,1945,055-322-4070,2018-02-18,
외동전통시장,상설장,경상남도 김해시 내외중앙로 35,경상남도 김해시 외동 1254-2,매일,35.2329342,128.8660224,151,"농.수산물,어류,잡화등",온누리상품권,,Y,N,1997,070-8825-5222,2018-02-18,
공주산성시장,상설장+5일장,충청남도 공주시 용당길 22,충청남도 공주시 산성동 190-1,매일+1일 6일,36.4588181708,127.122612438,610,"농·축산물, 의류, 가공, 생필품 등",온누리상품권,http://market.chungnam.net/html/sansung,Y,Y,1937,041-856-5427,2018-02-19,
산성시장 활성화구역,상설장,충청남도 공주시 국고개길 11,충청남도 공주시 중동 63,매일,36.4548823037,127.125676194,307,"생필품, 서비스, 요식업 등",온누리상품권,,Y,Y,1937,041-854-0036,2018-02-19,
유구시장,상설장+5일장,충청남도 공주시 유구읍 석남리 276,충청남도 공주시 유구읍 석남리 276,매일+3일 8일,36.5526997789,126.951462272,80,"의류, 식품, 생필품, 농수산물 등",온누리상품권,,Y,Y,1928,041-841-5448,2018-02-19,
중앙,상설장,충청북도 제천시 풍양로 108,충청북도 제천시 중앙로1가 77,상설,37.1366346,128.2112967,776,"의류, 잡화",온누리상품권,,Y,Y,1953,043-647-2047,2018-02-19,
내토,상설장,충청북도 제천시 용두천로11길 5,충청북도 제천시 중앙로1가 34-1,상설,37.1373609,128.2123956,57,식료품 등,온누리상품권,http://www.traffer.com/specialmarket/sm_main.action?specialMarket.id=950,Y,Y,1982,043-651-0053,2018-02-19,
동문,상설장,충청북도 제천시 용두천로 125,충청북도 제천시 중앙로2가 117-1,상설,37.1385178,128.2135279,53,식료품 등,온누리상품권,,N,Y,1980,070-4201-5252,2018-02-19,
약초,상설장,충청북도 제천시 원화산로 121,충청북도 제천시 화산동 987,상설,37.1278878,128.2195916,74,약초 등,온누리상품권,http://www.jcyakcho.org/,Y,Y,2008,043-647-0109,2018-02-19,
역전,상설장,충청북도 제천시 내토로28길 12,충청북도 제천시 화산동 208-9,상설,37.1289882,128.2064473,111,식료품 등,온누리상품권,,Y,Y,1960,043-645-2724,2018-02-19,
덕산,상설장,충청북도 제천시 덕산면 약초로3안길5-1,충청북도 제천시 덕산면 도전리 442-4,상설,36.9085865,128.1670933,51,양채 등,온누리상품권,http://www.ds-market.kr/,Y,Y,1980,043-651-9414,2018-02-19,
박달재,상설장,충청북도 제천시 백운면 평동로2길 13,충청북도 제천시 백운면 평동리 231-3,상설,37.1384203,128.0231129,58,식료품 등,온누리상품권,,N,Y,2013,043-648-2114,2018-02-19,
풍물,5일장,충청북도 제천시 의림대로2길31-2,충청북도 제천시 화산동 90-1,오일장,37.1276966,128.2091461,106,식료품 등,,,Y,Y,1996,043-648-8313,2018-02-19,
주안자유시장,상설,인천광역시 남구 경인로 326번길 71,인천광역시 남구 주안동 549-1,매일,37.4555604,126.6760561,24,,,,,,1970,,2017-03-20,
도마큰시장,상설장,대전광역시 서구 도마2길39(도마동),대전광역시 서구 도마동 134-40,매일,36.3147263051,127.38139834,494,"생필품,의류,농수산물",온누리상품권,,Y,Y,2005,042-532-8883,2018-02-13,
가수원상점가,상설장,대전광역시 서구 벌곡로1369-22(가수원동),대전광역시 서구 가수원동 768-10,매일,36.3032002052,127.352626313,92,"생필품,가정용품",온누리상품권,,Y,Y,2007,042-541-1845,2018-02-13,
둔산3동상점가,상설장,대전광역시 서구 둔산로206(둔산동),대전광역시 서구 둔산동 1814,매일,36.3510730392,127.396762212,698,"생필품,요식업 등",온누리상품권,,Y,Y,2008,042-478-8439,2018-02-13,
동쪽바다중앙시장,상설장,강원도 동해시 중앙시장길 12,강원도 동해시 발한동 7-1,매일,37.5511881,129.1085441,200,"농산물, 생필품,수산물, 잡화 등",온누리상품권,http://www.dh.go.kr/pages/sub.htm?nav_code=dh1471862398,Y,Y,1943,033-532-3889,2018-01-01,
동해남부재래시장,상설장,강원도 동해시 청운1길 29,강원도 동해시 쇄운동 442,매일,37.4871441,129.1054961,176,"농산물, 생필품,수산물, 잡화 등",온누리상품권,http://www.dh.go.kr/pages/sub.htm?nav_code=dh1471862408,Y,Y,1995,033-522-2100,2018-01-01,
북평민속시장,5일장,강원도 동해시 오일장길 32,강원도 동해시 구미동 486-2,"3일, 8일",37.4825091,129.1259621,800,"농산물, 생필품,수산물, 잡화 등",온누리상품권,http://www.dh.go.kr/pages/sub.htm?nav_code=dh1471862404,Y,Y,1796,033-522-1141,2018-01-01,
동호농산물시장,상설장,강원도 동해시 동호3길 8,강원도 동해시 발한동 509,매일,37.5452361,129.1022401,20,"농산물, 생필품,수산물, 잡화 등",,,Y,,1985,,2018-01-01,
부곡시장,상설장,강원도 동해시 부곡3길 20-10,강원도 동해시 부곡동 117-1,매일,37.5371401,129.1076281,10,"농산물, 생필품,수산물, 잡화 등",,,,,1995,,2018-01-01,
묵호시장,상설장,강원도 동해시 일출로 59-1,강원도 동해시 묵호진동 15-61,매일,37.5523501,129.1141561,45,"농산물, 생필품,수산물, 잡화 등",온누리상품권,http://www.dh.go.kr/pages/sub.htm?nav_code=dh1493022836,,,1970,,2018-01-01,
향로시장,상설장,강원도 동해시 향로봉길 46-5,강원도 동해시 발한동 64-21,매일,37.5429161,129.1100261,15,"농산물, 생필품,수산물, 잡화 등",,,,,1960,,2018-01-01,
삼화시장,상설장,강원도 동해시 삼화2길 17-17,강원도 동해시 이로동 1282-32,매일,37.4867121,129.0685831,20,"농산물, 생필품,수산물, 잡화 등",,,,,1960,,2018-01-01,
서문시장제1지구포목시장,상설장,대구광역시 중구 큰장로28길 10,대구광역시 중구 대신동 115-379,매일,35.869408,128.579856,351,"주단,포목",온누리상품권+전자상품권,http://www.seomun.net/,Y,Y,1974,053-254-7923,2018-01-01,
서문시장제4지구시장,상설장,대구광역시 중구 큰장로28길 10,대구광역시 중구 대신동 115-379,매일,35.869408,128.579856,679,"수예,의류",온누리상품권+전자상품권,http://www.seomun.net/,Y,Y,1974,053-255-2915,2018-01-01,
동부시장,상설장,대구광역시 중구 국채보상로 749,대구광역시 중구 동인동1가 470-2,매일,35.868571,128.612630,56,농산물,온누리상품권+전자상품권,,Y,N,1975,053-425-9516,2018-01-01,
남문시장,상설장,대구광역시 중구 중앙대로 307-22,대구광역시 중구 남산동 611-2,매일,35.860939,128.591119,60,"농산물, 생필품, 수산물, 잡화 등",온누리상품권+전자상품권,,Y,Y,1976,053-255-0469,2018-01-01,
동산상가,상설장,대구광역시 중구 큰장로28길 65,대구광역시 중구 대신동 115-377,매일,35.869465,128.580767,730,"의류,잡화",온누리상품권+전자상품권,http://www.seomun.net/,Y,Y,1977,053-257-3562,2018-01-01,
서문시장제5지구시장,상설장,대구광역시 중구 큰장로28길 6,대구광역시 중구 대신동 115-192,매일,35.869682,128.580742,466,"그릇,청과",온누리상품권+전자상품권,http://www.seomun.net/,Y,Y,1977,053-255-1059,2018-01-01,
프리몰,상설장,대구광역시 중구 국채보상로 지하 580,대구광역시 중구 동성로2가 41-8,매일,35.870814,128.595437,231,잡화,온누리상품권+전자상품권,,Y,N,1977,053-255-2427,2018-01-01,
대신지하상가,상설장,대구광역시 중구 국채보상로 470,대구광역시 중구 대신동 115-1,매일,35.870549,128.581967,330,"잡화,의류",온누리상품권+전자상품권,,Y,N,1985,053-555-9204,2018-01-01,
번개시장,상설장,대구광역시 중구 태평로 177-3,대구광역시 중구 태평로1가 1-152,매일,35.875076,128.598307,130,"농산물, 생필품, 수산물, 잡화 등",온누리상품권+전자상품권,,Y,Y,1988,053-427-7098,2018-01-01,
보성황실시장,상설장,대구광역시 중구 남산로13길 17,대구광역시 중구 남산동 2466-1,매일,35.860496,128.581388,26,"농산물,잡화",온누리상품권+전자상품권,,Y,N,1993,053-256-8060,2018-01-01,
메트로센터,상설장,대구광역시 중구 달구벌대로 지하2100,대구광역시 중구 덕산동 88,매일,35.864685,128.597878,403,"잡화,의류",온누리상품권+전자상품권,,Y,Y,2005,053-422-9733,2018-01-01,
재흥시장,상설,인천광역시 남구 동주길 29번길 67,인천광역시 남구 주안동 1472,매일,37.4524872,126.6809785,21,,,,,,1975,,2017-03-20,
메트로프라자,상설장,대구광역시 중구 달구벌대로 지하2160,대구광역시 중구 봉산동 127-1,매일,35.865050,128.595738,138,"잡화,의류",온누리상품권+전자상품권,,Y,Y,2005,053-254-5200,2018-01-01,
방천시장,상설장,대구광역시 중구 달구벌대로446길 7-3,대구광역시 중구 대봉동 12-12,매일,35.861846,128.606231,62,"농산물, 생필품, 수산물, 잡화 등",온누리상품권+전자상품권,,Y,N,2005,070-8249-3084,2018-01-01,
서문시장건해산물 상가,상설장,대구광역시 중구 큰장로26안길 5,대구광역시 중구 대신동 265-5,매일,35.868138,128.579446,91,건해산물,온누리상품권+전자상품권,http://www.seomun.net/,Y,Y,2005,053-254-7800,2018-01-01,
명품프라자상가,상설장,대구광역시 중구 큰장로28길 27,대구광역시 중구 대신동 115-112,매일,35.869832,128.581125,192,"그릇,잡화",온누리상품권+전자상품권,http://www.seomun.net/,Y,Y,2006,053-256-0023,2018-01-01,
대구 약령시장,상설장,대구광역시 중구 달구벌대로415길 49,대구광역시 중구 남성로 51-1,매일,,,211,"한약재, 농수산물",온누리상품권+전자상품권,http://dgom.daegu.go.kr/,Y,Y,2015,053-253-4729,2018-01-01,
신중앙시장,상설장,전라북도 전주시 완산구 태평5길 33(태평동),전라북도 전주시 완산구 태평동 41-5,상설시장,35.8241430,127.1435320,245,,"온누리상품권, 전자상품권",http://shinjoongang.allofthat.kr/,Y,Y,2007,063-271-8883,2018-01-02,
동부 시장,상설장,전라북도 전주시 완산구 충경로 109 (경원동3가),전라북도 전주시 완산구 경원동3가 90-13,상설시장,35.8199810,127.1510320,11,,"온누리상품권, 전자상품권",,Y,Y,2008,063-288-4487,2018-01-02,
모래내 시장,상설장,전라북도 전주시 덕진구 모래내4길 8-8(인후동2가),전라북도 전주시 덕진구 인후동2가 203-10,상설시장,35.8335430,127.1438870,223,,"온누리상품권, 전자상품권",jjmrn.kr,Y,Y,1970,063-278-5802,2018-01-02,
중앙 시장,상설장,전라북도 전주시 완산구 태평3길 70 (태평동),전라북도 전주시 완산구 태평동 36-1,상설시장,35.8252030,127.1424780,440,,"온누리상품권, 전자상품권",www.jjja.kr,Y,Y,1990,063-253-6535,2018-01-02,
남부 시장,상설장,전라북도 전주시 완산구 풍남문1길 19-1 (전동3가),전라북도 전주시 완산구 전동 295-2,상설시장,35.8127360,127.1477890,350,,온누리상품권,www.jjnm.kr,Y,Y,1938,063-284-1344,2018-01-02,
서부시장,상설장,전라북도 전주시 완산구 효동2길 18,전라북도 전주시 효자동 1가 201-2,상설시장,35.8048920,127.1266480,23,"김부각,육류,과일,건강식품,배추 등","온누리상품권, 전자상품권",https://dawayu.modoo.at/,Y,Y,,063-223-3321,2018-01-02,
삼방전통시장,상설장,경상남도 김해시 삼안로255번안길 6-5,경상남도 김해시 삼방동 669-1,매일,35.2500968,128.9095057,78,"농.수산물,어류,잡화등",온누리상품권,,Y,Y,1990,055-336-0021,2018-02-18,
진례전통시장,5일장,경상남도 김해시 진례면 송현로 6,경상남도 김해시 진례면 송정리 239-3,"5일, 10일",35.2488498,128.7489411,36,"농.수산물,어류,잡화등",온누리상품권,,Y,Y,1957,,2018-02-18,
진영전통시장,5일장,경상남도 김해시 진영읍 진영로160번길 13-4,경상남도 김해시 진영읍 진영리 235-10,"4일, 9일",35.302694,128.7304684,71,"농.수산물,어류,잡화등",온누리상품권,,Y,Y,1935,,2018-02-18,
장유전통시장,5일장,경상남도 김해시 장유로 287-22,경상남도 김해시 무계동 189-3,"3일, 8일",35.200615,128.814923,110,"농.수산물,어류,잡화등",온누리상품권,,Y,Y,1960,055-312-3830,2018-02-18,
김해(동상)전통시장,상설장,경상남도 김해시 호계로 517,경상남도 김해시 동상동 881-1,매일,35.2360545,128.8834099,170,"농.수산물,어류,잡화등",온누리상품권,,Y,Y,1945,055-322-4070,2018-02-18,
전북대 대학로 상점가,상설장,전라북도 전주시 덕진구 권삼득로 285,전라북도 전주시 덕진구 금암동 664-55,상점가,35.8419660,127.1297180,320,,,,Y,Y,2012,063-223-9030,2018-01-02,
고산 구시장 상점가,상설장,전라북도 완주군 고사면 고산로 113-1,전라북도 완주군 고산면 읍내리 548-2,상점가,35.9746510,127.2094590,106,,,,,,,,2018-01-02,
오수상점가,상설장,전라북도 임실군 오수면 삼일로 11,전라북도 임실군 오수면 오수리 366-3,상점가,35.5396760,127.3269940,137,,,,Y,Y,2005,,2018-01-02,
정읍산외한우마을상점가,상설장,전라북도 정읍시 산외면 산외로 435,전라북도 정읍시 산외면 평사리 461-8,상점가,35.6213050,127.0392890,40,,,,Y,Y,,,2018-01-02,
연지상점가,상설장,전라북도 정읍시 명덕로 47,전라북도 정읍시 연지동 329-15,상점가,35.5753480,126.8446510,382,,,,Y,Y,2000,,2018-01-02,
새암길상점가,상설장,전라북도 정읍시 새암길 40-1(수성동),전라북도 정읍시 수성동 571-6,상점가,35.5670020,126.8530820,106,"귀금속, 신발 등",,,Y,Y,2005,,2018-01-02,
중앙로상점가,상설장,전라북도 정읍시 중앙로 131,전라북도 정읍시 수성동 563,상점가,35.5665640,126.8531630,85,,,,Y,Y,2010,,2018-01-02,
서부시장상점가,상설장,전라북도 전주시 완산구 효동2길 23,전라북도 전주시 완산구 효자동 1가205-12,상점가,35.8044330,127.1268050,105,"정육, 순대국밥 등",,,Y,Y,2008,,2018-01-02,
동문상점가,상설장,전라북도 전주시 완산구 동문길 50,전라북도 전주시 완산구 풍남동1가 26-1,상점가,35.8188300,127.1510820,165,,"온누리상품권, 전자상품권",,Y,Y,2007,063-288-5288,2018-01-02,
풍남문상점가,상설장,전라북도 전주시 완산구 풍남문3길19,전라북도 전주시 완산구 전동 149-2,상점가,35.8146130,127.1469780,257,,"온누리상품권, 전자상품권",www.pnmta.co.kr,Y,Y,1991,063-288-6602,2018-01-02,
전주전자상점가,상설장,전라북도 전주시 덕진구 기린대로 305(진북동),전라북도 전주시 덕진구 진북동 320-34,상점가,35.8317440,127.1392710,80,"영상기기, 컴퓨터 등",온누리상품권,GIRINRO.com,Y,Y,1970,063-276-0742,2018-01-02,
고창시장,상설장+오일장,전라북도 고창군 고창읍 시장안길 25,전라북도 고창군 고창읍 읍내리 368,"3일, 8일",35.4324620,126.6980920,199,"복분자술, 풍천장어 등","온누리상품권, 전자상품권",,Y,Y,2009,063-564-3097,2018-01-02,
진안시장,상설장+오일장,전라북도 진안군 진안읍 시장1길 16,전라북도 진안군 진안읍 군상리 406-7,"4일, 9일",35.7923600,127.4293250,54,"고추, 인삼, 채소 등","온누리상품권, 전자상품권",,Y,Y,2006,063-432-1498,2018-01-02,
공설시장,상설장+오일장,전라북도 남원시 의총로 51(금동),전라북도 남원시 금동 264-1,"4일, 9일",35.4048120,127.3753410,144,"부각, 순대국밥 등","온누리상품권, 전자상품권",http://www.nwgs.kr,Y,Y,2014,063-625-4010,2018-01-02,
황등시장,상설장+오일장,전라북도 익산시 황등면 황등7길 25,전라북도 익산시 황등면 황등리 588-2,"5일, 10일",36.0062730,126.9452920,46,"대추, 사과, 복숭아, 포도 등","온누리상품권, 전자상품권",,Y,Y,2004,063-856-4446,2018-01-02,
함열시장,상설장+오일장,전라북도 익산시 함열읍 와리2길 8,전라북도 익산시 함열읍 와리544-34,"2일, 7일",36.0807590,126.9585030,34,고구마,,,Y,Y,2009,063-862-2900,2018-01-02,
신동시장,상설장,전라북도 익산시 무왕로6길 31(신동),전라북도 익산시 신동 808-1,상설시장,35.9589190,126.9623740,46,"방앗간, 음식점 등",,,Y,Y,2008,,2018-01-02,
남부시장,상설장,전라북도 익산시 평동로11길 12,전라북도 익산시 인화동2가 7,상설시장,35.9319150,126.9533950,55,"치킨집, 건어물 등","온누리상품권, 전자상품권",www.isnb.kr,Y,Y,2005,063-855-4798,2018-01-02,
중앙시장,상설장,전라북도 익산시 중앙로3길 27(창인동1가),전라북도 익산시 창인동1가 137-1,상설시장,35.9417070,126.9501230,174,,"온누리상품권, 전자상품권",,Y,Y,2009,063-855-3479,2018-01-02,
주공나운시장,상설장,전라북도 군산시 하나운안1길 39(나운동),전라북도 군산시 나운동 836-11,상설시장,35.9657420,126.6954570,76,,"온누리상품권, 전자상품권",,Y,Y,2003,063-461-2811,2018-01-02,
수산물종합센터,상설장,전라북도 군산시 내항2길 216(금동),전라북도 군산시 금동 57-4,상설시장,35.9942660,126.7057460,128,,"온누리상품권, 전자상품권",,Y,Y,,,2018-01-02,
명산시장,상설장,전라북도 군산시 금광길 20(명산동),전라북도 군산시 명산동 19-10,상설시장,35.9827680,126.7091660,72,"박대, 김치 등","온누리상품권, 전자상품권",www.gsmssj.kr,Y,Y,1950,063-445-9384,2018-01-02,
역전종합시장,상설장,전라북도 군산시 대명3길 31(대명동),전라북도 군산시 대명동 138-107,상설시장,35.9814870,126.7202880,98,,"온누리상품권, 전자상품권",,Y,Y,1992,063-443-4192,2018-01-02,
신영시장,상설장,전라북도 군산시 동신영길 36(신영동),전라북도 군산시 신영동 19-5,상설시장,35.9856570,126.7201280,120,,"온누리상품권, 전자상품권",www.gssysj.kr,Y,Y,1993,063-446-2524,2018-01-02,
공설시장,상설장,전라북도 군산시 신금길 18(신영동),전라북도 군산시 신영동 18-1,상설시장,35.9833470,126.7202380,221,,"온누리상품권, 전자상품권",,Y,Y,1990,063-445-4929,2018-01-02,
금마시장,상설장+오일장,전라북도 김제시 동서7길 23(요촌동),전라북도 김제시 요촌동 194-7,"2일, 7일",35.8001170,126.8864440,29,"파, 대추 등",,,Y,Y,1974,063-836-6731,2018-01-02,
북부시장,상설장+오일장,전라북도 익산시 인북로 259(남중동),전라북도 익산시 남중동 35-4,상설시장,35.9518600,126.9580090,138,"생선, 농산물, 의류 등","온누리상품권, 전자상품권",www.isbb.kr,Y,Y,1975,063-855-6891,2018-01-02,
대야시장,상설장+오일장,전라북도 군산시 대야면 대야시장로 19,전라북도 군산시 대야면 산월리 401-3,"1일, 6일",35.9452010,126.8172360,38,"배추, 무 등",온누리상품권,,Y,Y,1999,,2018-01-02,
줄포시장,상설장,전라북도 부안군 줄포면 부안로 865,전라북도 부안군 줄포면 줄포리 728-3,상설시장,35.5875800,126.6767310,30,,,,Y,Y,1996,063-580-4612,2018-01-02,
부안시장,상설장,전라북도 부안군 부안읍 부풍로 47,전라북도 부안군 부안읍 서외리 21,상설시장,35.7270130,126.7329180,182,"수산물, 간장새우, 청과 등","온누리상품권, 전자상품권",blog.naver.com/buanmarket,Y,Y,1980,063-584-3070,2018-01-02,
오수시장,상설장,전라북도 임실군 오수면 오수로 159,전라북도 임실군 오수면 오수리 351-1,상설시장,35.5382580,127.3269780,48,,"온누리상품권, 전자상품권",,Y,Y,1962,063-644-2007,2018-01-02,
삼례시장,상설장,전라북도 완주군 삼례읍 남서신길 17-11,전라북도 완주군 삼례읍 삼례리 923-8,상설시장,35.9105070,127.0734430,43,,"온누리상품권, 전자상품권",,Y,Y,2013,063-291-9429,2018-01-02,
고산시장,상설장,전라북도 완주군 고산면 남봉로 134,전라북도 완주군 고산면 읍내리 884-4,상설시장,35.9742090,127.2055640,30,"지역농산물, 먹거리, 체험공방 등",온누리상품권,gosanmiso.co.kr/,Y,Y,2000,063-262-0119,2018-01-02,
역전시장,상설장,전라북도 김제시 중앙로 288,전라북도 김제시 신풍동40-2,상설시장,35.7931280,126.9016190,40,,,,Y,Y,2009,,2018-01-02,
금만시장,상설장,전라북도 김제시 동서7길 23(요촌동),전라북도 김제시 요촌동 194-7,상설시장,35.8001170,126.8864440,96,,,,Y,Y,1992,,2018-01-02,
김제시장,상설장,전라북도 김제시 사정거리1길 20,전라북도 김제시 요촌동 415,상설시장,35.8017310,126.8838110,65,,"온누리상품권, 전자상품권",,Y,Y,,063-547-3894,2018-01-02,
용남시장,상설장,전라북도 남원시 동헌길 10(하정동),전라북도 남원시 하정동 138,상설시장,35.4074530,127.3769990,87,야채 등,"온누리상품권, 전자상품권",http://www.nwyn.kr,Y,Y,1978,063-632-5133,2018-01-02,
연지시장,상설장,전라북도 정읍시 연지시장3길 18-3(연지동),전라북도 정읍시 연지동 31-1,상설시장,35.5736740,126.8471520,40,,"온누리상품권, 전자상품권",,Y,Y,2006,063-531-6885,2018-01-02,
샘고을시장,상설장,전라북도 정읍시 태평3길 13-4(시기동),전라북도 정읍시 시기동 353,상설시장,35.5642770,126.8553120,298,"국밥, 이불, 전통악기 등","온누리상품권, 전자상품권",,Y,Y,,063-534-6661,2018-01-02,
익산구시장,상설장,전라북도 익산시 인북로 34-1,전라북도 익산시 인화동1가 44-1,상설시장,35.9323270,126.9506180,91,,,,Y,Y,1980,,2018-01-02,
익산장,상설장,전라북도 익산시 동서로18길 22-13(남중동),전라북도 익산시 남중동 34-6,상설시장,35.9517070,126.9568440,150,농산물 등,"온누리상품권, 전자상품권",,Y,Y,2005,063-857-2661,2018-01-02,
매일시장,상설장,전라북도 익산시 중앙로3길 13(창인동1가),전라북도 익산시 창인동1가 88-5,상설시장,35.9403690,126.9496900,57,여성의류 등,"온누리상품권, 전자상품권",,Y,Y,1973,063-855-1522,2018-01-02,
서동시장,상설장,전라북도 익산시 중앙로3길 45(창인동1가),전라북도 익산시 창인동1가 114-27,상설시장,35.9431850,126.9507440,62,"야채, 과일, 생선 등","온누리상품권, 전자상품권",,Y,Y,1994,063-842-0063,2018-01-02,
서문시장,상설장,충청북도 청주시 상당구 남사로89번길 47(서문동),,매일,36.6344782762,127.485405015,73,"농축수산물, 잡화",온누리상품권,,Y,,1964,043-256-4541,2018-02-01,
중앙시장,상설장,충청북도 청주시 상당구 중앙로 26(북문로2가동),,매일,36.6393829419,127.489192862,62,"농축수산물, 잡화",온누리상품권,,,,1979,043-256-7657,2018-02-01,
사창시장,상설장,충청북도 청주시 서원구 창신로32번길 9-1(사창동),,매일,36.6339432813,127.465003044,103,"농축수산물, 잡화",온누리상품권,,Y,Y,1981,043-265-1354,2018-02-01,
사직시장,상설장,충청북도 청주시 서원구 사직대로265번길 7(사직동),,매일,36.6361419919,127.476868455,56,"농축수산물, 잡화",온누리상품권,,,Y,1981,043-263-3837,2018-02-01,
두꺼비시장,상설장,충청북도 청주시 서원구 수곡로68번길 8-8(수곡동),,매일,36.6175702573,127.472658204,59,"농축수산물, 잡화",온누리상품권,,Y,,1997,,2018-02-01,
육거리종합시장,상설장,충청북도 청주시 상당구 청남로2197번길 42(석교동),,매일,36.6279391358,127.488185868,1202,"농축수산물, 잡화",온누리상품권,,Y,Y,1970,043-222-6696,2018-02-01,
송정시장,상설장,강원도 동해시 송정시장길 3-5,강원도 동해시 송정동 848-27,매일,37.4992971,129.1250791,15,"농산물, 생필품,수산물, 잡화 등",,,Y,,1948,,2018-01-01,
전곡재래시장,상설,경기도 연천군 전곡읍 전곡로 172번길 4-19,경기도 연천군 전곡읍 전곡리 479-31,매일,38.0270441,127.0681046,62,농산물+생필품+수산물+잡화,온누리상품권,,Y,Y,2006,031-839-2271,2017-04-10,
곤양종합시장,상설,경상남도 사천시 곤양면 남산로 65,경상남도 사천시 곤양면 남문외리 48-4,"5일, 10일",35.0565338689,127.963348348,20,"농수산물,잡화 등",온누리상품권,,Y,Y,2000,055-854-4877,2017-09-30,
완사시장,상설,경상남도 사천시 곤명면 완사2길 12,경상남도 사천시 곤명면 정곡리 842,"1일, 6일",35.1312182858,127.976343937,44,"농수산물,잡화 등",온누리상품권,,Y,Y,1997,055-853-8080,2017-09-30,
사천읍시장,상설,경상남도 사천시 사천읍 시장1길 16,경상남도 사천시 사천읍 정의리 393-8,매일,35.0840605608,128.089009987,145,"농수산물,잡화 등",온누리상품권,,Y,Y,1978,055-852-2008,2017-09-30,
서포시장,상설,경상남도 사천시 서포면 자구로 473,경상남도 사천시 서포면 구평리 644-3,"4일, 9일",35.0068656708,127.977905059,50,"농수산물,잡화 등",온누리상품권,,Y,Y,1998,055-852-9609,2017-09-30,
삼천포종합시장,상설,경상남도 사천시 동금2길 15,경상남도 사천시 동금동 88-4,"4일, 9일",34.9323453801,128.078542919,350,"농수산물,잡화 등",온누리상품권,,Y,Y,1987,055-833-0662,2017-09-30,
삼천포중앙시장,상설,경상남도 사천시 중앙시장길 12-39,경상남도 사천시 선구동 17-4,매일,34.931164,128.076804,290,"농수산물,잡화 등",온누리상품권,,Y,Y,1967,055-834-8676,2017-09-30,
삼천포용궁수산시장,상설,경상남도 사천시 어시장길 64,경상남도 사천시 동동 485-2,매일,34.9274335923,128.071763394,268,"농수산물,잡화 등",온누리상품권,,Y,Y,1978,055-835-2229,2017-09-30,
중앙메가프라자,상설,대전광역시 동구 중앙로 200번길 99(원동),대전광역시 동구 원동 42-1번지,매일,36.32719,127.4339,195,"한복,의류,침구",온누리상품권,,Y,N,1973,042-253-1550,2017-11-30,
신중앙시장,상설,대전광역시 동구 중앙로 200번길85(원동),대전광역시 동구 원동 40-1번지,매일,36.3273,127.4336,82,"옷감,의류",온누리상품권,,Y,N,1975,042-256-2157,2017-11-30,
신정3동 골목시장,상설,서울특별시 양천구 중앙로43길 26 (신정동),서울특별시 양천구 신정동 1181-16,매일,37.518463,126.835144,4,농수산 식품,,,N,N,,,2017-11-01,
화천재래시장,상설장,강원도 화천군  화천읍 중앙로 4길 21-7외,강원도 화천군 화천읍 하리 52-9,매일,38.103715,127.705625,100,"음식점, 농산물, 생필품, 잡화 등",온누리상품권+화천사랑상품권+화천시장상품권,http://www.ihcmall.co.kr,Y,Y,1953,033-442-4013,2018-01-11,
안성시장,상설장+5일장,경기도 안성시 시장길 37 외,경기도 안성시 서인동 13-1,"2일,7일",37.006661,127.2705407,151,"농산물, 생필품, 수산물, 잡화 등",온누리상품권,,Y,Y,1971,031-677-4777,2018-01-01,
중앙시장,상설장+5일장,경기도 안성시 장기로45번길 30외,경기도 안성시 서인동 81,"2일,7일",37.0066649,127.2688284,81,"농산물, 생필품, 수산물, 잡화 등",온누리상품권,,Y,Y,1983,031-677-4777,2018-01-01,
죽산시장,상설장+5일장,경기도 안성시 죽산면 중서길 8-9,경기도 안성시 죽산면 죽산리 438-1,"5일,10일",37.0761182,127.423638,76,"농산물, 생필품, 수산물, 잡화 등",,,Y,Y,2010,031-677-4777,2018-01-01,
후포 공설시장,5일장,경상북도 울진군 후포면 삼율리126,경상북도 울진군 후포면 울진대게로21,3일+8일,36.678027,129.443813,89,"농산물, 생필품, 수산물, 잡화 등",온누리상품권,,Y,Y,1965,054-788-2481,2018-02-27,
평해 공설시장,5일장,경상북도 울진군 평해읍 평해리871-1,경상북도 울진군 평해읍 평해6길24-5,2일+7일,36.726276,129.442012,23,"농산물, 생필품, 수산물, 잡화 등",온누리상품권,,Y,Y,1965,054-787-5010,2018-02-27,
죽변 공설시장,5일장,경상북도 울진군 죽변면 죽변리36-8,경상북도 울진군 죽변면 죽변중앙로168-14,3일+8일,37.059036,129.422315,52,"농산물, 생필품, 수산물, 잡화 등",온누리상품권,,Y,Y,1965,,2018-02-27,
울진 공설시장,5일장,경상북도 울진군 울진읍 읍내리60-1,경상북도 울진군 울진읍 읍내2길13-6,2일+7일,36.992404,129.401987,150,"농산물, 생필품, 수산물, 잡화 등",온누리상품권,,Y,Y,1965,054-783-2988,2018-02-27,
흥부 공설시장,5일장,경상북도 울진군 북면 부구리135,경상북도 울진군 북면 장터길104,1일+6일,37.103609,129.375178,26,"농산물, 생필품, 수산물, 잡화 등",온누리상품권,,Y,Y,1965,054-782-5731,2018-02-27,
매화 공설시장,5일장,경상북도 울진군 매화면 매화리1147,경상북도 울진군 매화면 매화1길78,4일+9일,36.910329,129.380626,0,"농산물, 생필품, 수산물, 잡화 등",,,Y,Y,1965,,2018-02-27,
척산 공설시장,5일장,경상북도 울진군 기성면 척산리211-6,경상북도 울진군 기성면 척산2길20-8,1일+6일,36.797544,129.451635,0,"농산물, 생필품, 수산물, 잡화 등",,,Y,Y,1965,,2018-02-27,
연산전통시장,상설장,충청남도 논산시 연산면 연산4길 10-8,충청남도 논산시 연산면 연산리 394-2,매일,36.2161083,127.2166208,17,"채소, 수산물 등",온누리상품권,,Y,Y,1911,041-733-3222,2018-02-13,
강경젓갈시장,상설장,충청남도 논산시 강경읍 금백로 45,충청남도 논산시 강경읍 황산리 198,매일,36.1579023,127.0093008,93,젓갈 등,온누리상품권,http://www.ggfestival.co.kr/,Y,Y,1989,041-745-1985,2018-02-13,
청양시장,상설장+5일장,충청남도 청양군 청양읍 칠갑산로4길 6,충청남도 청양군 청양읍 읍내리196-4,"2일, 7일",36.4506242,126.801211,135,"생활용품,잡화,농산물","온누리상품권,청양사랑상품권",http://market.chungnam.net/html/cheongyang/,Y,Y,1971,041-940-2333,2018-02-13,
정산시장,5일장,충청남도 청양군 정산면 정현길 54,충청남도 청양군 정산면 서정리 162,"5일, 10일, 말일",36.4111139,126.9479437,48,"생활용품,잡화,농산물","온누리상품권,청양사랑상품권",,Y,Y,1919,041-940-2334,2018-02-13,
청양특화시장,상설장,충청남도 청양군 청양읍 문화예술로 222,충청남도 청양군 청양읍 읍내리 288-1,매일,36.4592856,126.8021241,17,고추,온누리상품권,,Y,Y,2003,041-940-2335,2018-02-13,
청양약초구기자시장,상설장,충청남도 청양군 청양읍 칠갑산로4길 28,충청남도 청양군 청양읍 읍내리 330,매일,36.4484376,126.8005508,11,"약초, 구기자",온누리상품권,,Y,Y,2010,041-940-2336,2018-02-13,
오산오색시장,상설+오일장,경기도 오산시 오산로 272번길 22,경기도 오산시 오산동 862,상시,37.150898,127.070852,350,"농수산물, 생필품,.잡화, 음식점 등",온누리상품권,5colormarket.com,Y,Y,1914,031-376-4141,2017-11-30,
광명전통시장,상설,경기도 광명시 광이로13번길 17-5,경기도 광명시 광명동 158-44 일원,매일,37.479723,126.856702,408,"농산물, 생필품, 수산물, 잡화 등",온누리상품권,www.gmmarket.kr,Y,N,2005,02-2614-0006,2017-12-03,
광명새마을시장,상설,경기도 광명시 광명로831번길 4-1,경기도 광명시 광명동 345-1 일원,매일,37.474027,126.849301,142,"농산물, 생필품, 수산물, 잡화 등",온누리상품권,,Y,N,2013,02-2614-5292,2017-12-03,
통진시장,상설,경기도 김포시 통진읍 서암로84번길,경기도 김포시 통진읍 서암리 730-3,매일,37.626066,126.599638,77,식재료 등,온누리상품권,,N,N,2012,031-980-2276,2017-05-01,
양곡시장,상설,경기도 김포시 양촌읍 양곡로 537,경기도 김포시 양촌읍 양곡리 414-3,매일,37.654818,126.623703,76,식재료 등,온누리상품권,,N,N,2013,031-980-2276,2017-05-01,
동래시장,상설장,부산광역시 동래구 동래시장길 14(복천동),부산광역시 동래구 복천동 229-28,매일,35.203800,129.085952,343,"농산물, 생필품, 수산물, 잡화 등",온누리상품권,http://www.dongnaesijang.co.kr/,Y,Y,1970,051-552-1651,2018-02-13,
온천시장,상설장,부산광역시 동래구 온천장로119번길 48(온천동),부산광역시 동래구 온천동 147-6,매일,35.222231,129.082545,142,"농산물, 생필품, 수산물, 잡화 등",온누리상품권,-,Y,N,1971,051-555-8231,2018-02-13,
금정상가시장,상설장,부산광역시 동래구 충렬대로108번길81(온천동),부산광역시 동래구 온천동 1459-2,매일,35.203230,129.073830,36,"농산물, 생필품, 수산물, 잡화 등",온누리상품권,-,Y,N,1975,051-504-3867,2018-02-13,
금강시장,상설장,부산광역시 동래구 아시아드대로208번길48(온천동),부산광역시 동래구 온천동 1376-7,매일,35.201621,129.068600,50,"농산물, 생필품, 수산물, 잡화 등",온누리상품권,-,Y,N,1976,051-504-4794,2018-02-13,
안락상가시장,상설장,부산광역시 동래구 충렬대로410번길 21,부산광역시 동래구 안락2동 603-1,매일,35.195622,129.103234,58,"농산물, 생필품, 수산물, 잡화 등",온누리상품권,-,Y,N,1976,051-523-6587,2018-02-13,
금성상가시장,상설장,부산광역시 동래구 우장춘로4번길238(온천동),부산광역시 동래구 온천2동 1407-2,매일,35.208174,129.071955,16,"농산물, 생필품, 수산물, 잡화 등",온누리상품권,-,Y,N,1976,051-553-3441,2018-02-13,
신정시장,상설장,부산광역시 동래구 아시아드대로134번길62(사직동),부산광역시 동래구 사직3동 128-1,매일,35.196782,129.069468,45,"농산물, 생필품, 수산물, 잡화 등",온누리상품권,-,Y,N,1977,051-502-6647,2018-02-13,
서원시장,상설장,부산광역시 동래구 충렬대로359번길 55(안락동),부산광역시 동래구 안락1동 425-51,매일,35.200388,129.099034,54,"농산물, 생필품, 수산물, 잡화 등",온누리상품권,-,Y,N,1977,051-523-4426,2018-02-13,
명장시장,상설장,부산광역시 동래구 명장로64번길12(명장동),부산광역시 동래구 명장1동 145-9,매일,35.204022,129.107485,43,"농산물, 생필품, 수산물, 잡화 등",온누리상품권,-,Y,N,1980,051-529-3375,2018-02-13,
충렬상가시장,상설장,부산광역시 동래구 충렬대로459번길73-10(안락동),부산광역시 동래구 안락2동 464-21,매일,35.198085,129.109974,54,"농산물, 생필품, 수산물, 잡화 등",온누리상품권,-,Y,Y,1983,051-522-6868,2018-02-13,
원마루시장,상설장,충청북도 청주시 서원구 원마루로8번길 21(분평동),,매일,36.6090318794,127.496409481,103,"농축수산물, 잡화",온누리상품권,,Y,,1998,043-288-7372,2018-02-01,
온천로터리종합시장,상설장,부산광역시 동래구 명륜로 260(명륜동),부산광역시 동래구 명륜동 5-5,매일,35.216251,129.085282,15,"농산물, 생필품, 수산물, 잡화 등",온누리상품권,-,Y,N,1978,051-552-0756,2018-02-13,
온천인정시장,상설장,부산광역시 동래구 온천장로119번길44-14,부산광역시 동래구 온천동 147-7,매일,35.222253,129.083027,117,"농산물, 생필품, 수산물, 잡화 등",온누리상품권,-,N,N,2005,051-517-8802,2018-02-13,
수안인정시장,상설장,부산광역시 동래구 충렬대로245번길8(수안동),부산광역시 동래구 수안동 275-2,매일,35.201499,129.086586,145,"농산물, 생필품, 수산물, 잡화 등",온누리상품권,-,Y,Y,2007,051-555-0073,2018-02-13,
사직시장,상설장,부산광역시 동래구 사직북로28번길96(사직동),부산광역시 동래구 사직1동 56-11,매일,35.201080,129.064168,157,"농산물, 생필품, 수산물, 잡화 등",온누리상품권,-,Y,N,1978,051-506-8002,2018-02-13,
국민시장,상설장,부산광역시 동래구 사직북로33번길31(사직동),부산광역시 동래구 사직2동 44-1,매일,35.198396,129.058288,84,"농산물, 생필품, 수산물, 잡화 등",온누리상품권,-,Y,Y,1977,051-501-4122,2018-02-13,
역곡남부시장,상설,경기도 부천시 부광로16번길33,경기도 부천시 괴안동107-8,매일,37.4825276,126.8115371,72,과일+야채+생선등,온누리상품권,,N,N,1983,032-343-9655,2017-03-08,
부천제일시장,상설,경기도 부천시 원종로85번길84,경기도 부천시 원종동296,매일,37.5279029,126.8097532,170,과일+야채+생선등,온누리상품권,,Y,N,1981,032-679-5689,2017-03-08,
소사종합시장,상설,경기도 부천시 호현로474번길13-2,경기도 부천시 소사본동78-12,매일,37.479651,126.7939434,54,과일+야채+생선등,온누리상품권,,Y,Y,1980,032-347-1909,2017-03-08,
오정시장,상설,경기도 부천시 부천로470번길50,경기도 부천시 오정동582-30,매일,37.5259696,126.7856889,80,과일+야채+생선등,온누리상품권,,N,N,1992,032-681-8655,2017-03-08,
원미종합시장,상설,경기도 부천시 조종로49번길 21-3,경기도 부천시 원미동97-12,매일,37.4936893,126.7902184,114,과일+생선등,온누리상품권,,Y,N,1985,032-655-6682,2017-03-08,
원미부흥시장,상설,경기도 부천시 원미로97번길 8,경기도 부천시 원미동116-4,매일,37.4915807,126.7900524,63,과일+생선등,온누리상품권,,N,N,1980,032-664-4607,2017-03-08,
역곡상상시장,상설,경기도 부천시 부일로749번길31,경기도 부천시 역곡동84-7,매일,37.4875847,126.8119496,122,과일+생선등,온누리상품권,http://www.ygmarket.co.kr,Y,Y,1984,032-343-8562,2017-03-08,
가경터미널시장,상설장,충청북도 청주시 흥덕구 풍산로47번길 10(가경동),,매일,36.6277182102,127.43545015,85,"농축수산물, 잡화",온누리상품권,,Y,Y,1994,043-232-1117,2018-02-01,
복대가경시장,상설장,충청북도 청주시 흥덕구 신율로139번길 59-1(복대동),,매일,36.6298504214,127.443717771,77,"농축수산물, 잡화",온누리상품권,,Y,Y,1990,070-4319-5997,2018-02-01,
직지시장,상설장,충청북도 청주시 흥덕구 직지대로639번길 88(봉명동),,매일,36.6465791353,127.466326999,60,"농축수산물, 잡화",온누리상품권,,Y,Y,1978,043-263-9289,2018-02-01,
복대시장,상설장,충청북도 청주시 흥덕구 사직대로11번길 8(복대동),,매일,36.634679873,127.448691988,55,"농축수산물, 잡화",온누리상품권,,,,1983,043-273-6092,2018-02-01,
북부시장,상설장,충청북도 청주시 청원구 향군로31번길 19(우암동),,매일,36.6479738472,127.48621883,133,"농축수산물, 잡화",온누리상품권,,Y,Y,1970,043-224-8085,2018-02-01,
내덕자연시장,상설장,충청북도 청주시 청원구 공항로58번길 14(내덕동),,매일,36.662414364,127.48864509,52,"농축수산물, 잡화",온누리상품권,,Y,Y,1985,043-214-4970,2018-02-01,
내수시장,상설장+5일장,"충청북도 청주시 청원구 내수로 726 (내수읍, 마산리)",,"매일+오일장(5일, 10일)",36.7262656667,127.536007397,76,"농축수산물, 잡화",온누리상품권,,,Y,1964,043-214-1999,2018-02-01,
오창시장,상설장+5일장,"충청북도 청주시 청원구 오창시내5길 1(오창읍, 장대리)",,"매일+오일장(3일, 8일)",36.7419622314,127.455751531,71,"농축수산물, 잡화",온누리상품권,,,Y,1964,043-216-2116,2018-02-01,
대신시장,상설장,"부산광역시 서구 대영로 78(동대신동1가, 동대맨션)",부산광역시 서구 동대신1가113-1,매일,35.111873,129.019393,80,농산물,온누리상품권,http://economic.bsseogu.go.kr/,N,N,1932,051-246-2125,2018-02-14,
송남시장,상설장,부산광역시 서구 충무대로 34(암남동),부산광역시 서구 암남동346-2,매일,35.071653,129.012005,57,농산물,온누리상품권,http://economic.bsseogu.go.kr/,Y,N,1978,051-255-4059,2018-02-14,
동대신1동골목시장,상설장,부산광역시 서구 대영로 74번길 4(동대신동1가),부산광역시 서구 동대신동1가129-6,매일,35.110501,129.019175,60,농산물,온누리상품권,http://economic.bsseogu.go.kr/,N,N,1973,051-242-0776,2018-02-14,
강남시장,상설,경기도 부천시 옥산로154번길21,경기도 부천시 도당동274-54,매일,37.5074985,126.7814574,107,과일+생선등,온누리상품권,,Y,Y,1985,032-676-8000,2017-03-08,
서대신동골목시장,상설장,부산광역시 서구 구덕로 295번길 16(서대신동2가),부산광역시 서구 서대신동2가108,매일,35.110865,129.011318,168,농산물,온누리상품권,http://economic.bsseogu.go.kr/,Y,N,1952,051-244-3284,2018-02-14,
아미시장,상설장,부산광역시 서구 아미초장로 132(아미동2가),부산광역시 서구 아미동2가96-11,매일,35.100065,129.016824,51,농산물,온누리상품권,http://economic.bsseogu.go.kr/,N,N,1960,051-244-0890,2018-02-14,
충무동골목시장,상설장,부산광역시 서구 충무시장길 30(충무동1가),부산광역시 서구 충무동1가29,매일,35.094527,129.023442,160,농산물,온누리상품권,http://economic.bsseogu.go.kr/,N,Y,1967,051-242-3724,2018-02-14,
충무동해안시장,상설장,부산광역시 서구 자갈치로 14-12(충무동1가),부산광역시 서구 충무동1가1-75,매일,35.096237,129.025857,170,수산물,온누리상품권,http://economic.bsseogu.go.kr/,Y,N,1965,051-247-7740,2018-02-14,
충무동새벽시장,상설장,부산광역시 서구 해안새벽시장길 70(남부민동),부산광역시 서구 남부민1동684,매일,35.093185,129.054298,310,농산물,온누리상품권,http://economic.bsseogu.go.kr/,Y,Y,1965,051-242-7273,2018-02-14,
서대신1동골목시장,상설장,부산광역시 서구 대영로 30번길 5(서대신동1가),부산광역시 서구 서대신동1가159-6,매일,35.109699,129.016316,67,농산물,온누리상품권,http://economic.bsseogu.go.kr/,N,N,1950,051-243-6265,2018-02-14,
화원시장,상설장,대구광역시 달성군 화원읍 비슬로512길 66,대구광역시 달성군 화원읍 천내리 892-4,매일,35.801183,128.499432,31,"한식, 미곡, 잡화 등",온누리상품권,,Y,Y,1914,,2018-01-31,
현풍백년도깨비시장,상설장,대구광역시 달성군 현풍면 현풍로6길 5,대구광역시 달성군 현풍면 원교리 12-5,매일,35.694751,128.442243,51,"한식, 건어물, 잡화 등",온누리상품권,,Y,Y,1918,,2018-01-31,
논공시장,상설장,대구광역시 달성군 논공읍 금포시장길 4,대구광역시 달성군 논공읍 금포리 1805-1,정기,35.774035,128.421783,12,"농약, 방앗간 등",,,Y,Y,2010,,2018-01-31,
구지시장,상설장,대구광역시 달성군 구지면 창리로11길 15-7,대구광역시 달성군 구지면 창리 424-2,정기,35.657765,128.412578,4,"한식, 잡화 등",,,Y,Y,1933,,2018-01-31,
논공중앙시장,상설장,대구광역시 달성군 논공읍 용호로2길 12,대구광역시 달성군 논공읍 북리 824-33,매일,35.728412,128.446519,50,"한식, 반찬, 떡 등",,,Y,N,1996,,2018-01-31,
부천중동시장,상설,경기도 부천시 부흥로200번길25,경기도 부천시 중동724,매일,37.4949673,126.7645769,103,과일+생선등,온누리상품권,,Y,Y,1995,032-661-1717,2017-03-08,
평창올림픽시장,상설,강원도 평창군 평창읍 평창중앙로 27-28,강원도 평창군 평창읍 하리 139-2,매일,37.367265,128.394531,94,농산물 생필품 수산물 잡화 등,온누리상품권,,Y,Y,1955,033-330-2761,2017-12-26,
대화전통시장,상설,강원도 평창군 대화면 대화중앙로 128-6,강원도 평창군 대화면 대화리 1001-5,매일,37.500214,128.454911,143,농산물 생필품 수산물 잡화 등,온누리상품권,,Y,Y,1958,033-330-2761,2017-12-26,
봉평전통시장,상설,강원도 평창군 봉평면 기풍3길 31,강원도 평창군 봉평면 창동리 397-11,매일,37.6155557,128.377707,97,농산물 생필품 수산물 잡화 등,온누리상품권,,Y,Y,1957,033-330-2761,2017-12-26,
진부전통시장,상설,강원도 평창군 진부면 진부중앙로 61,강원도 평창군 진부면 하진부리 138-1,매일,37.6370186,128.558141,200,농산물 생필품 수산물 잡화 등,온누리상품권,,Y,Y,1957,033-330-2761,2017-12-26,
역전시장,상설,경기도 수원시 팔달구 매산로 2-10(매산로1가),경기도 수원시 팔달구 매산로1가 57-3,매일,37.2663016,127.0023389,220,"의류,음식, 포목, 잡화 등",온누리상품권,,N,Y,1969,031-256-5019,2017-02-24,
팔달문시장,상설,경기도 수원시 팔달구 팔달문로5-10(팔달로2가),경기도 수원시 팔달구 팔달로2가 39,매일,37.2779474,127.0182218,98,"의류,먹거리, 신발, 가방 등",온누리상품권,,Y,Y,2005,031-251-5153,2017-02-24,
권선종합시장,상설,경기도 수원시 권선구 세권로 185(권선동),경기도 수원시 권선구 권선동 1051,매일,37.2560989,127.0245796,61,"순대국밥, 농수축산물 등",온누리상품권,,N,Y,1987,031-237-0903,2017-02-24,
영동시장,상설,경기도 수원시 팔달구 수원천로255번길 6(영동),경기도 수원시 팔달구 영동 8,매일,37.2771967,127.0186391,265,"전통한복, 양장, 잡화 등",온누리상품권,http://www.suwonyd.com/,Y,Y,1919,031-251-0171,2017-02-24,
화서시장,상설,경기도 수원시 팔달구 동말로68번길 15(화서동),경기도 수원시 팔달구 화서동 97-2,매일,37.2781206,127.002075,105,"야채, 과일, 생선, 반찬, 잡화 등",온누리상품권,,N,Y,1987,031-241-4578,2017-02-24,
지동시장,상설,경기도 수원시 팔달구 팔달문로 19(지동),경기도 수원시 팔달구 지동 402-2,매일,37.2778651,127.019572,181,"순대, 농수산물, 건어물 등",온누리상품권,http://www.jdmarket.co.kr/,Y,Y,1966,031-256-0202,2017-02-24,
정자시장,상설,경기도 수원시 장안구 수성로261번길 16(정자동),경기도 수원시 장안구 정자동 73-10,매일,37.2906903,127.0008813,135,"의류, 야채, 과일 등",온누리상품권,,N,N,1991,031-252-0290,2017-02-24,
시민시장,상설+오일장,경기도 안산시 단원구 화랑로 149(초지동),경기도 안산시 단원구 초지동 604-4,"상설(매일)+5일장(5,10,15,20,25,30)",37.325038,126.805273,410,"농산물, 생필품, 수산물, 잡화 등",온누리상품권+전자상품권,http://www.ansanmarket.co.kr/,Y,Y,1997,031-411-1040,2017-04-21,
마석5일장,오일장,경기도 남양주시 화도읍 마석로17번길 26,경기도 남양주시 화도읍 마석우리 314-2,"3일, 8일",37.6531425,127.304508,215,"농산물, 생필품, 잡화",,,Y,N,1964,031-590-2283,2017-04-26,
장현5일장,오일장,경기도 남양주시 진접읍 장현로 96,경기도 남양주시 진접읍 장현리 380-15,"2일, 7일",37.718491,127.1829842,100,"농산물, 생필품, 잡화",,,N,N,1964,031-590-2283,2017-04-26,
광릉5일장,오일장,경기도 남양주시 진접읍 광릉내로 43-1,경기도 남양주시 진접읍 부평리 513-1,"4일, 9일",37.7437563,127.1994253,27,"농산물, 생필품, 잡화",,,N,N,1964,031-590-2283,2017-04-26,
현대시장,상설,경기도 성남시 수정구 수정북로18(태평동),경기도 성남시 수정구 태평동 3683,매일,37.4417019,127.131968,53,"농수산물, 생필품,잡화 등","온누리상품권, 성남사랑상품권",,N,N,1974,031-753-2828,2017-01-01,
신흥시장,상설,경기도 성남시 수정구 수정로214번길6(시흥동),경기도 성남시 수정구 신흥동 3436-10,매일,37.4439735,127.143391,15,"농수산물, 생필품,잡화 등","온누리상품권, 성남사랑상품권",,N,Y,1971,031-732-1882,2017-01-01,
금광시장,상설,경기도 성남시 중원구 둔촌대로69번길8,경기도 성남시 중원구 금광동 4622,매일,37.450209,127.1599156,35,"농수산물, 생필품,잡화 등","온누리상품권, 성남사랑상품권",,Y,Y,1994,,2017-01-01,
현대시장,상설,경기도 성남시 분당구 중앙공원로40번길8(서현동),경기도 성남시 분당구 서현동 94,매일,37.3797137,127.1302153,95,"농수산물, 생필품,잡화 등","온누리상품권, 성남사랑상품권",,Y,Y,1992,031-701-1240,2017-01-01,
동신종합시장,상설,경기도 성남시 분당구 돌마로361(수내동),경기도 성남시 분당구 수내동 63-2,매일,37.3706031,127.1229291,89,"농수산물, 생필품,잡화 등","온누리상품권, 성남사랑상품권",,Y,Y,1993,031-711-8628,2017-01-01,
코코프라자시장,상설,경기도 성남시 분당구 서현로210번길20(서현동),"경기도 성남시 분당구 서현동 248-5,6",매일,37.3859481,127.1241105,60,"농수산물, 생필품,잡화 등","온누리상품권, 성남사랑상품권",,Y,Y,1994,031-707-7315,2017-01-01,
사기막골도자기시장,상설,경기도 이천시 경충대로 2993번길 37,경기도 이천시 사음동 539,매일,37.2943056,127.4122722,48,도자기,온누리상품권,http://sagimakgol.com,Y,Y,1978,031-636-3693,2017-11-10,
부천상동시장,상설,경기도 부천시 장말로200번길48,경기도 부천시 상동244-3,매일,37.4908852,126.7634228,161,과일+생선등,온누리상품권,,Y,Y,1986,032-611-3691,2017-03-08,
청과물시장,상설,경기도 부천시 심곡로15번길42,경기도 부천시 심곡본동660-2,매일,37.481923,126.7788184,60,과일+야채등 도매,온누리상품권,,N,N,1973,032-654-1031,2017-03-08,
부천자유시장,상설,경기도 부천시 자유로33,경기도 부천시 심곡본동543,매일,37.4839757,126.7798978,312,과일+야채+생선등,온누리상품권,,Y,N,1947,032-656-1892,2017-03-08,
부천한신시장,상설,경기도 부천시 은성로68번길46,경기도 부천시 소사본동200-1,매일,37.4730914,126.7979633,91,과일+야채+생선등,온누리상품권,,Y,Y,1986,032-341-5372,2017-03-08,
조공시장,상설,경기도 부천시 범안로8번길11,경기도 부천시 괴안동40,매일,37.4802289,126.8052839,58,과일+야채+생선등,온누리상품권,,N,N,1987,032-341-7053,2017-03-08,
원종종합시장,상설,경기도 부천시 삼작로394,경기도 부천시 원종동372-1,매일,37.5196825,126.8055479,51,과일+야채+생선등,온누리상품권,,N,N,1987,032-681-0985,2017-03-08,
원종시장,상설,경기도 부천시 삼작로367,경기도 부천시 원종동367,매일,37.5196293,126.8060956,55,과일+야채+생선등,온누리상품권,,N,Y,1986,032-673-1425,2017-03-08,
원종중앙시장,상설,경기도 부천시 성오로124번길47,경기도 부천시 원종동209-5,매일,37.5250146,126.8023077,68,과일+야채+생선등,온누리상품권,,Y,Y,1992,032-678-2787,2017-03-08,
고강시장,상설,경기도 부천시 고리울로52번길19-16,경기도 부천시 고강본동398-6,매일,37.5259762,126.8222656,71,과일+야채+생선등,온누리상품권,,N,N,1990,032-677-5992,2017-03-08,
신흥시장,상설,경기도 부천시 평천로721번길14-2,경기도 부천시 삼정동315,매일,37.515548,126.7709733,63,과일+야채+생선등,온누리상품권,,Y,N,1985,032-672-7576,2017-03-08,
산본시장,상설,경기도 군포시 산본천로183번길 6,경기도 군포시 산본동 251-4,매일,37.3701717,126.9385357,203,"농산물,축산물,의류,생활용품",온누리상품권,www.산본시장.kr,Y,Y,1985,031-399-4248,2017-02-20,
군포역전시장,상설,경기도 군포시 군포로538번길7-3,경기도 군포시 당동 749-41,매일,37.3539647,126.9473574,57,"농산물,축산,의류,생활용품",온누리상품권,-,N,N,1970,031-455-3366,2017-02-20,
공단시장,상설,인천광역시 남구 석정로 399,인천광역시 남구 주안동 15-43,매일,37.4672372,126.6801515,52,,온누리상품권,,,,1981,,2017-03-20,
새서울프라자,상설,경기도 과천시 별양상가2로 20,경기도 과천시 별양동 1-18,매일,37.4268292,126.9925614,135,"의류, 신발, 음식, 기타 소매 등",온누리상품권,,Y,Y,1996,02-503-5101,2017-11-30,
제일쇼핑,상설,경기도 과천시 별양상가2로 14,경기도 과천시 별양동 1-13,매일,37.4273338,126.9930043,102,"의류, 신발, 음식, 기타 소매 등",온누리상품권,,Y,Y,2005,031-859-1233,2017-11-30,
삼미시장,상설,경기도 시흥시 삼미시장2길 35 일원 (신천동),경기도 시흥시 신천동 738-4 일원,매일,37.440365,126.783812,142,"의류,식품,생필품",온누리상품권,,Y,N,2006,031-311-7006,2017-01-01,
용인중앙시장,상설+오일장,경기도 용인시 처인구 금령로99번길 9,경기도 용인시 처인구 김량장동 133-65번지 일원,"매일, 5일+10일",37.236506,127.207071,535,"야채, 수산, 정육, 순대, 떡, 의류, 잡화 등",전통시장 상품권+온누리상품권,http://market-yi.com,Y,Y,1960,031-336-1110,2017-02-16,
죽전로데오상점가시장,상설,경기도 용인시 수지구 용구대로 2725-3,경기도 용인시 수지구 죽전동 1003-52번지 일원,매일,37.328761,127.108104,100,"의류, 신발, 가방 등",온누리상품권,http://jukjeon-rodeo.com,Y,Y,1996,031-266-2853,2017-02-16,
금촌전통시장,상설,경기도 파주시 금정24길 18-6(금촌동),경기도 파주시 금촌동 64-19,매일,37.762599,126.773886,96,"농축수산물, 반찬, 공산품",온누리상품권,,Y,Y,1942,031-946-0013,2017-10-31,
문산자유시장,상설,경기도 파주시 문산읍 문향로 57,경기도 파주시 문산읍 문산리 10-23,매일,37.856727,126.783942,145,"농축수산물, 반찬, 공산품",온누리상품권,,Y,Y,1964,031-952-3233,2017-10-31,
광탄시장,상설,경기도 파주시 광탄면 혜음로 1120번길 22,경기도 파주시 광탄면 신산리 221-8,매일,37.782166,126.848543,169,"농산물, 반찬, 공산품",온누리상품권,,Y,N,1956,031-947-0261,2017-10-31,
적성전통시장,상설,경기도 파주시 적성면 칠중2길 19,경기도 파주시 적성면 구읍리 649-14,매일,37.955533,126.918612,82,"농산물, 음식점, 공산품",온누리상품권,,N,N,1958,031-959-9289,2017-10-31,
금촌문화로시장,상설,경기도 파주시 문화로 94(금촌동),경기도 파주시 금촌동 55-4,매일,37.762673,126.775133,133,"의류, 음식점, 공산품",온누리상품권,,N,Y,1958,031-948-7989,2017-10-31,
금촌명동로시장,상설,경기도 파주시 명동길 56(금촌동),경기도 파주시 금촌동 321-19,매일,37.763139,126.773651,62,"의류, 음식점, 공산품",온누리상품권,,N,Y,1960,031-943-1768,2017-10-31,
모란시장,상설,경기도 성남시 중원구 둔촌대로69번길8,경기도 성남시 중원구 성남동 4190,매일,37.4302597,127.1279844,99,"농수산물, 생필품,잡화 등","온누리상품권, 성남사랑상품권",,Y,Y,1974,031-756-1389,2017-01-01,
성남중앙지하시장,상설,경기도 성남시 수정구 산성대로,경기도 성남시 수정구 신흥동 2467외 10필지,매일,37.4433953,127.1504539,520,"농수산물, 생필품,잡화 등","온누리상품권, 성남사랑상품권",,Y,Y,1995,031-721-9111,2017-01-01,
현대프라자시장,상설,경기도 성남시 분당구 돌마로364(수내동),경기도 성남시 분당구 수내동 79-2,매일,37.369968,127.1236461,88,"농수산물, 생필품,잡화 등","온누리상품권, 성남사랑상품권",,Y,Y,1996,031-718-3014,2017-01-01,
분당종합시장,상설,경기도 성남시 분당구 돌마로366번길42(수내동),"경기도 성남시 분당구 수내동 83-1,2",매일,37.3670886,127.1268113,46,"농수산물, 생필품,잡화 등","온누리상품권, 성남사랑상품권",,Y,Y,1996,031-717-4878,2017-01-01,
미래타운제1종합시장,상설,"경기도 성남시 분당구 불정로376번길10(서현동,효자촌미래타운)",경기도 성남시 분당구 서현동 307,매일,37.3731959,127.1379851,103,"농수산물, 생필품,잡화 등","온누리상품권, 성남사랑상품권",,Y,Y,1994,031-701-7007,2017-01-01,
분당우성시장,상설,경기도 성남시 분당구 중앙공원로40번길42(서현동),경기도 성남시 분당구 서현동 94-3,매일,37.3783059,127.1321549,80,"농수산물, 생필품,잡화 등","온누리상품권, 성남사랑상품권",,Y,Y,1995,031-701-4309,2017-01-01,
범한프라자시장,상설,경기도 성남시 분당구 불정로 376번길37(서현동),경기도 성남시 분당구 서현동 312-3,매일,37.3716625,127.1393957,94,"농수산물, 생필품,잡화 등","온누리상품권, 성남사랑상품권",,Y,Y,2015,031-701-3199,2017-01-01,
성호시장,상설,경기도 성남시 중원구 147(성남동),경기도 성남시 중원구 성남동 2090외,매일,37.4380115,127.144138,300,"농수산물, 생필품,잡화 등","온누리상품권, 성남사랑상품권",,Y,Y,,031-752-1215,2017-01-01,
단대마트시장,상설,경기도 성남시 중원구 산성대로372번길10(금광동),경기도 성남시 중원구 금광동 10,매일,37.4446252,127.1580685,88,"농수산물, 생필품,잡화 등","온누리상품권, 성남사랑상품권",,Y,Y,1993,031-734-9343,2017-01-01,
미래타운제2종합시장,상설,"경기도 성남시 분당구 불정로376번길31(서현동,효자촌주상복합)",경기도 성남시 분당구 서현동 311,매일,37.3723694,127.138968,72,"농수산물, 생필품,잡화 등","온누리상품권, 성남사랑상품권",,Y,Y,1994,031-704-8151,2017-01-01,
코끼리상가,상설,"경기도 성남시 분당구 내정로166번길7-6(수내동,파크타운)",경기도 성남시 분당구 수내동 56,매일,37.3728291,127.1206974,70,"농수산물, 생필품,잡화 등","온누리상품권, 성남사랑상품권",,Y,Y,1996,031-713-1071,2017-01-01,
돌고래시장,상설,"경기도 성남시 분당구 내정로174번길42(수내동, 파크타운)",경기도 성남시 분당구 수내동 53,매일,37.3712851,127.1221219,142,"농수산물, 생필품,잡화 등","온누리상품권, 성남사랑상품권",,Y,Y,1996,031-712-0298,2017-01-01,
야탑에이스코아시장,상설,경기도 성남시 분당구 야탑로64(야탑동),경기도 성남시 분당구 야탑동 502,매일,37.4094702,127.1257758,10,"농수산물, 생필품,잡화 등","온누리상품권, 성남사랑상품권",,Y,Y,1997,031-704-0096,2017-01-01,
하대원시장,상설,경기도 성남시 중원구 마지로118,"경기도 성남시 중원구 하대원동 266-1,3",매일,37.4274756,127.1422107,73,"농수산물, 생필품,잡화 등","온누리상품권, 성남사랑상품권",,Y,Y,2006,031-721-5522,2017-01-01,
중앙시장,상설,경기도 성남시 수정구 제일로168(태평동),경기도 성남시 수정구 태평동 3681,매일,37.4413917,127.1321166,175,"농수산물, 생필품,잡화 등","온누리상품권, 성남사랑상품권",,N,N,2006,031-755-9222,2017-01-01,
성남남한산성시장,상설,경기도 성남시 중원구 은이로8번길6(은행동),경기도 성남시 중원구 은행동 1553-6외 24필지,매일,37.4572988,127.1646687,73,"농수산물, 생필품,잡화 등","온누리상품권, 성남사랑상품권",,N,N,2013,031-745-9848,2017-01-01,
상대원시장,상설,경기도 성남시 중원구 희망로344번길6(상대원동),경기도 성남시 중원구 상대원동 2985-1외20필지,매일,37.4359853,127.1587463,91,"농수산물, 생필품,잡화 등","온누리상품권, 성남사랑상품권",,N,N,2013,031-746-7290,2017-01-01,
금호시장,상설,"경기도 성남시 분당구 내정로165번길38(수내동,양지마을)",경기도 성남시 분당구 수내동 32,매일,37.3763255,127.1167017,169,"농수산물, 생필품,잡화 등","온누리상품권, 성남사랑상품권",,Y,Y,2013,031-711-7268,2017-01-01,
은행시장,상설,경기도 성남시 중원구 산성대로526(은행동),경기도 성남시 중원구 은행동 1553,매일,37.4575802,127.1644794,51,"농수산물, 생필품,잡화 등","온누리상품권, 성남사랑상품권",,Y,Y,2014,031-744-9858,2017-01-01,
미금현대벤처빌,상설,경기도 성남시 분당구 돌마로 80(구미동),경기도 성남시 분당구 구미동 24-1외 2필지,매일,37.3497084,127.1100557,129,"농수산물, 생필품,잡화 등","온누리상품권, 성남사랑상품권",,Y,Y,2015,,2017-01-01,
남지정기시장,오일장,경상남도 창녕군 남지읍 본동길 4,,"2일,7일",35.3891166484,128.482492167,,,,,,,,,2017-04-27,
모란민속시장,오일장,경기도 성남시 중원구 성남동 1864일원,경기도 성남시 중원구 성남동 1864외1,"4일,9일",37.430007,127.1284404,953,"농수산물, 생필품,잡화 등","온누리상품권, 성남사랑상품권",,Y,Y,,031-721-9905,2017-01-01,
일동5일장,오일장,경기도 포천시 일동면 화동로 1094-10,경기도 포천시 일동면 기산리 94-10,2/7일,37.9596859,127.3194316,55,"농산물, 생필품, 수산물, 잡화 등",온누리상품권,,,,,,2017-11-21,
일동전통시장,상설,경기도 포천시 일동면 화동로1033번길 12,경기도 포천시 일동면 기산리 89-48,매일,37.956707,127.315921,45,"농산물, 생필품, 수산물, 잡화 등",온누리상품권,,Y,Y,1980,031-531-3230,2017-11-21,
운천전통시장,상설,경기도 포천시 영북면 영북로177번길 25,경기도 포천시 영북면 운천리 513-7,매일,38.090153,127.271865,80,"농산물, 생필품, 수산물, 잡화 등",온누리상품권,,Y,Y,1990,031-533-9906,2017-11-21,
신읍5일장,오일장,경기도 포천시 군내면 호국로 1553,경기도 포천시 군내면 구읍리 715-1,0/5일,37.8926346,127.2022414,240,"농산물, 생필품, 수산물, 잡화 등",온누리상품권,,,,,,2017-11-21,
송우5일장,오일장,경기도 포천시 소흘읍 송우로 21번길 11,경기도 포천시 소흘읍 송우리 142-4,4/9일,37.8268942,127.145749,83,"농산물, 생필품, 수산물, 잡화 등",온누리상품권,,,,,,2017-11-21,
내리5일장,오일장,경기도 포천시 내촌면 내촌로 54,경기도 포천시 내촌면 내리 484-1,1/6일,37.7848199,127.2268805,15,"농산물, 생필품, 수산물, 잡화 등",온누리상품권,,,,,,2017-11-21,
양문5일장,오일장,경기도 포천시 양문로 9길 7,경기도 포천시 영중면 양문리 819-11,4/9일,38.0019024,127.2435129,30,"농산물, 생필품, 수산물, 잡화 등",온누리상품권,,,,,,2017-11-21,
이동5일장,오일장,경기도 포천시 이동면 장암1길 14-1,경기도 포천시 이동면 장암리 509-2,3/8일,38.0353688,127.3670621,15,"농산물, 생필품, 수산물, 잡화 등",온누리상품권,,,,,,2017-11-21,
운천5일장,오일장,경기도 포천시 영북면 운천로 177번길 22,경기도 포천시 영북면 운천리 513-7,4/9일,38.0910293,127.272508,30,"농산물, 생필품, 수산물, 잡화 등",온누리상품권,,,,,,2017-11-21,
관인5일장,오일장,경기도 포천시 관인면 관인로 18,경기도 포천시 관인면 탄동리 644-8,2/7일,38.1577981,127.2504251,10,"농산물, 생필품, 수산물, 잡화 등",온누리상품권,,,,,,2017-11-21,
김포중앙시장,상설,경기도 김포시 북변중로 55,경기도 김포시 북변동 382-11,매일,37.626066,126.710509,124,식재료 등,온누리상품권,,N,N,2005,031-980-2276,2017-05-01,
관고전통시장,오일장,경기도 이천시 중리천로31번길 22,경기도 이천시 관고동 10-13,"2일, 7일",37.2808331,127.4403481,100,"농축산물,공산품,잡화 등",온누리상품권,,Y,Y,1930,031-633-4243,2017-11-10,
장호원전통시장,오일장,경기도 이천시 장호원읍 서동대로8965번길 36,경기도 이천시 장호원읍 오남리 3-1,"4일, 9일",37.1146803,127.6310291,65,"농축산물,공산품,잡화 등",온누리상품권,,Y,Y,1955,031-641-2456,2017-11-10,
사강시장,상설+오일장,경기도 화성시 송산면 사강로 189,경기도 화성시 송산면 사강리 656-8 일원,"2,7일장",37.216227,126.739863,245,"농산물,생필품",온누리상품권,,Y,Y,1924,031-357-6037,2017-11-20,
남양시장,상설+오일장,경기도 화성시 남양읍 남양시장로 70 일원,경기도 화성시 남양읍 남양리 1165 일원,"1,6일장",37.208885,126.815359,356,"농산물,생필품",온누리상품권,,Y,Y,1935,031-356-7001,2017-11-20,
발안만세시장,상설+오일장,경기도 화성시 향남읍 평2길 7 일원,경기도 화성시 향남읍 평리 80 일원,"5,10일장",37.131481,126.909568,432,"농산물,생필품",온누리상품권,www.bamk.co.kr,Y,Y,1929,031-351-0120,2017-11-20,
조암시장,상설+오일장,경기도 화성시 우정읍 조암남로 24 일원,경기도 화성시 우정읍 조암리 270 일원,"4,9일장",37.0831735,126.8182058,337,"농산물,생필품",온누리상품권,,Y,Y,1929,031-351-6100,2017-11-20,
부곡도깨비시장,상설,경기도 의왕시 부곡시장길 18,경기도 의왕시 삼동 192,매일,37.3203943,126.9553403,103,"농산물, 생필품, 수산물, 잡화, 음식류 등",온누리상품권,goblinmarket.allofthat.kr,Y,N,2014,031-462-0994,2017-11-20,
세아프라자,상설,경기도 동두천시 큰시장로 64,경기도 동두천시 생연동 809,매일,37.900673,127.050551,53,"복합상가(슈퍼,의류,액세사리)",온누리상품권,,Y,Y,1993,031-866-7504,2017-10-31,
제일시장,상설,경기도 동두천시 정장로 12-16,경기도 동두천시 생연동 823-10,매일,37.904046,127.051727,51,"의류,혼수용품, 잡화 등",온누리상품권,,N,Y,1960,031-866-7504,2017-10-31,
중앙시장,상설,경기도 동두천시 동광로52번길 39,경기도 동두천시 생연동 604,매일,37.906463,127.053566,201,"생식품,가공식품, 잡화 등",온누리상품권,,Y,Y,1967,031-861-6938,2017-10-31,
큰시장,상설+오일장,경기도 동두천시 생연로 97-1,경기도 동두천시 생연동 814-6,"매일/5일, 10일",37.901463,127.050224,104,"농축산물, 잡화 등",온누리상품권,,Y,Y,1960,031-859-1233,2017-10-31,
구리전통시장,상설,경기도 구리시 검배로6번길 31,경기도 구리시 수택동 417,매일,37.5995456,127.1399297,281,농수축산물·의류·잡화·식품 등,온누리상품권,http://www.gurisijang.co.kr,Y,Y,2005,031-568-8700,2017-10-31,
가평잣고을전통시장,상설,경기도 가평군 가평읍 가화로 116-1 일원,경기도 가평군 가평읍 읍내리 406-2,상설,37.8399858,127.5203856,118,"농산물,의류,잡화","온누리상품권, 가평사랑상품권",,Y,Y,2015,031-582-8181,2017-10-31,
염산장,오일장,전라남도 영광군 염산면 칠산로 60-3,전라남도 영광군 염산면 봉남리 721-16,5일,35.216552,126.372710,12,잡화상,N,N,Y,Y,1956,061-350-4955,2017-12-21,
영광장,오일장,전라남도 영광군 영광읍 신남로 100-25,전라남도 영광군 영광읍 신하리 324-3,5일,35.274512,126.494043,21,잡화상,N,N,Y,Y,1951,061-350-5861,2017-12-21,
백수장,오일장,전라남도 영광군 백수읍 백수로10길 38,전라남도 영광군 백수읍 죽사리 694-7,5일,35.281093,126.422430,12,잡화상,N,N,Y,Y,1956,061-350-5882,2017-12-21,
횡성전통시장,상설+오일장,강원도 횡성군 횡성읍 읍상서로 5번길 26,강원도 횡성군 횡성읍 읍상리 277-3번지,1일+6일,37.4895818,127.9871854,134,"음식,청과,수산,특산물,과일,   의류,신발,잡화,제과,반찬","온누리상품권, 횡성시장상품권,강원상품권",http://www.woohahamarket. co.kr/,Y,Y,1980,033-342-2389,2017-11-29,
공룡시장,상설,경상남도 고성군 고성읍 성내로112번길 75-8,경상남도 고성군 고성읍 성내리 212-3,매일,34.972907,128.323401,100,"농산물,수산물,축산물,의류,기타잡화",온누리상품권,,Y,Y,1910,055-674-0698,2017-11-30,
고성시장,오일장,경상남도 고성군 고성읍 중앙로25번길 27,"경상남도 고성군 고성읍 서외리 1-6,1-10",1일+6일,34.978483,128.323413,310,"농산물,수산물,축산물,의류,기타잡화",온누리상품권,,Y,Y,1989,055-674-6931,2017-11-30,
배둔시장,오일장,경상남도 고성군 회화면 배둔로31번길 31,"경상남도 고성군 회화면 배둔리 826-2,824-46",4일+9일,35.057607,128.369151,64,"농산물,수산물,축산물,의류,기타잡화",,,Y,N,1936,055-670-2304,2017-11-30,
영오시장,오일장,경상남도 고성군 영오면 영회로 525-1,경상남도 고성군 영오면 영산리 219-4,2일+7일,35.108858,128.238033,30,"농산물,수산물,축산물,의류,기타잡화",,,Y,Y,1954,055-670-2304,2017-11-30,
신영주번개시장,상설,경상북도 영주시 선비로 91-9 (휴천동),,매일,36.8123566,128.6229715,51,"식료품(식육, 채소), 수산물",온누리상품권,,N,N,2013,054-633-9824,2017-12-07,
제일시장,오일장,경기도 여주시 여흥로 57번길 20,경기도 여주시 하동 180-1,"5일, 10일",37.298948,127.631601,,"농산물, 생필품, 수산물, 잡화 등",온누리상품권,,Y,Y,1983,031-885-2562,2017-11-20,
가남시장,오일장,경기도 여주시 가남읍 태평중앙1길,,"1일, 6일",37.202545,127.545958,,"농산물, 생필품, 수산물, 잡화 등",,,N,N,,,2017-11-20,
율촌시장,오일장,경기도 여주시 대신면 여양로 1456-3,경기도 여주시 대신면 율촌리 380-4,"4일, 9일",37.374582,127.585928,,"농산물, 생필품, 수산물, 잡화 등",,,N,N,,,2017-11-20,
덕풍시장,상설+오일장,경기도 하남시 신장로154번길 57  (덕풍동),경기도 하남시 덕풍동 326-9,"매일,+4일,+ 9일",37.5418138,127.2035164,148,"농.축산물.의류.분식,잡화 등",온누리상품권,,Y,Y,2005,031-794-3753,2017-11-09,
신장시장,상설,경기도 하남시 신장1로3번길 42  (신장동),경기도 하남시 신장동 438-7,매일,37.5367881,127.2086486,76,농.수.축산물.의류.떡류 등,온누리상품권,,Y,Y,2004,031-794-4626,2017-11-09,
목2동시장,상설,서울특별시 양천구 목동중앙북로16길 3 (목동),서울특별시 양천구 목동 526,매일,37.545917,126.873880,87,농수산 식품,온누리 상품권,,N,N,,02-2644-3238,2017-11-01,
목동깨비시장,상설,서울특별시 양천구 목동중앙북로6길 5 (목동),서울특별시 양천구 목동 617-13,매일,37.548126,126.865180,96,농수산 식품,온누리 상품권,,N,N,1970,02-2647-9191,2017-11-01,
목사랑시장,상설,서울특별시 양천구 목동중앙남로7길 8 (목동),서울특별시 양천구 목동 726-18,매일,37.537798,126.866227,82,농수산 식품,온누리 상품권,,Y,Y,1972,,2017-11-01,
월정로시장,상설,서울특별시 양천구 월정로29길 3 (신월동),서울특별시 양천구 신월동 114-1,매일,37.533433,126.835680,121,농수산 식품,온누리 상품권,,N,N,,02-2604-3319,2017-11-01,
신영시장,상설,서울특별시 양천구 월정로 161-5 (신월동),서울특별시 양천구 신월동 114-18,매일,37.532977,126.836009,85,농수산 식품,온누리 상품권,,Y,Y,1981,,2017-11-01,
경창시장,상설,서울특별시 양천구 오목로9길 31 (신월동),서울특별시 양천구 신월동 447-8,매일,37.524891,126.842112,51,농수산 식품,온누리 상품권,,Y,N,1972,,2017-11-01,
신월3동 골목시장,상설,서울특별시 양천구 남부순환로40가길 13 (신월동),서울특별시 양천구 신월동 181-1,매일,37.533646,126.808059,50,농수산 식품,,,N,N,,,2017-11-01,
이방정기시장,오일장,경상남도 창녕군 이방면 이방대합로 351,,"4일,9일",35.6014119353,128.382841164,,,,,,,,,2017-04-27,
못골종합시장,상설,경기도 수원시 팔달구 수원천로258번길 10-12(지동),경기도 수원시 팔달구 지동 387-1,매일,37.2759951,127.0207605,87,"야채, 과일, 생선, 반찬, 잡화 등",온누리상품권,http://www.motgol.com/,Y,Y,1970,031-246-5638,2017-02-24,
시민상가시장,상설,경기도 수원시 팔달구 팔달문로4번길 19(영동),경기도 수원시 팔달구 영동 10-18,매일,37.2766666,127.0179831,54,"의류, 잡화",온누리상품권,,Y,Y,1969,031-255-6637,2017-02-24,
남문로데오시장,상설,경기도 수원시 팔달구 행궁로 88(교동),경기도 수원시 팔달구 교동 3-6,매일,37.2746369,127.0155247,224,"의류, 음식점 등",온누리상품권,,Y,N,2005,031-258-0336,2017-02-24,
남문패션1번가시장,상설,경기도 수원시 팔달구 정조로758번길 24(영동),경기도 수원시 팔달구 영동 43-5,매일,37.2756261,127.0181079,156,"의류, 신발 등",온누리상품권,,Y,Y,2005,031-255-5226,2017-02-24,
구천동공구시장,상설,경기도 수원시 팔달구 수원천로199번길 3,경기도 수원시 팔달구 구천동 86,매일,37.2720259,127.0173318,96,공구류,온누리상품권,,N,N,2005,031-244-0980,2017-02-24,
구매탄시장,상설,경기도 수원시 영통구 매여울로53번길 28(매탄동),경기도 수원시 영통구 매탄동 172-106,매일,37.272388,127.0431384,117,"농수축산물, 반찬, 떡 등",온누리상품권,http://blog.naver.com/9meatan,N,Y,1978,031-211-3936,2017-02-24,
미나리광시장,상설,경기도 수원시 팔달구 수원천로264번길 13(지동),경기도 수원시 팔달구 지동 400-17,매일,37.2771064,127.0201509,52,"야채, 과일, 반찬, 정육, 잡화 등",온누리상품권,,Y,Y,2006,031-254-7795,2017-02-24,
매산로테마거리상점가,상설,경기도 수원시 팔달구 향교로 29(매산로2가),경기도 수원시 팔달구 매산로2가 27-30,매일,37.268682,127.004159,143,"음식점, 주점업, 액세서리, 기타",온누리상품권,,N,N,1972,031-257-9997,2017-02-24,
조원시장,상설,경기도 수원시 장안구 송정로187번길 35-1(조원동),경기도 수원시 장안구 조원동 767,매일,37.2998794,127.0153804,98,"야채, 과일, 생선, 반찬, 잡화 등",온누리상품권,http://www.jowon.kr/,N,N,1972,1566-5491,2017-02-24,
장안문거북시장,상설,경기도 수원시 장안구 수성로382번길 24 근처,경기도 수원시 장안구 영화동 230-3,매일,37.2927874,127.0142107,139,"야채, 과일, 생선, 반찬, 잡화 등",온누리상품권,http://www.gobuk.co.kr/,N,Y,1972,031-252-7800,2017-02-24,
양곡장터시장,상설,경기도 김포시 양촌읍 양곡1로56번길 13,경기도 김포시 양촌읍 양곡리 423,매일,37.656107,126.623677,77,식재료 등,온누리상품권,,Y,N,2016,031-980-2276,2017-05-01,
권선가구거리상점가,상설,경기도 수원시 권선구 권선로 690(권선동),경기도 수원시 권선구 권선동 1029-1,매일,37.2589435,127.0265563,53,"사무용 가구, 침대 등",온누리상품권,,N,N,1970,031-252-1065,2017-02-24,
연무시장,상설,경기도 수원시 장안구 월드컵로428번길 10(연무동),경기도 수원시 장안구 연무동 249,매일,37.2939604,127.0259771,190,"농수축산물, 잡화 등",온누리상품권,,N,N,2011,031-308-9944,2017-02-24,
매산시장,상설,경기도 수원시 팔달구 권선로 477(매산로2가) 대한대우아파트 후문상가 2층,경기도 수원시 팔달구 매산로2가 90,매일,37.267068,127.003503,103,"농수축산물, 이불, 잡화, 음식점 등",온누리상품권,http://blog.naver.com/maesan7893,N,N,1970,031-224-7893,2017-02-24,
북수원시장,상설,경기도 수원시 장안구 파장로82번길 9(파장동),경기도 수원시 장안구 파장동 572-35,매일,37.3070265,126.9921667,131,"야채, 과일, 생선, 반찬, 잡화 등",온누리상품권,http://wwwgaksibab.com,N,Y,1975,031-268-7526,2017-02-24,
역전지하도상가,상설,경기도 수원시 팔달구 덕영대로 지하 907-65(매산로1가),경기도 수원시 팔달구 매산로1가 17,매일,37.2676041,127.0010885,82,"휴대폰, 액세서리",온누리상품권,,N,N,1970,031-244-7771,2017-02-24,
의정부제일시장,상설,경기도 의정부시 태평로73번길 20 (의정부동),경기도 의정부시 의정부동 160,매일,37.739733,127.050391,636,"농수산물, 의류, 공산품",온누리상품권,,Y,Y,1976,031-846-2617,2017-03-31,
의정부시장,상설,경기도 의정부시 시민로143번길 40 (의정부동),경기도 의정부시 의정부동 148-5외,매일,37.739414,127.051207,58,농수산물,온누리상품권,,N,N,1976,031-848-8688,2017-03-31,
의정부청과야채시장,상설,경기도 의정부시 시민로157번길 8 (의정부동),경기도 의정부시 의정부동 30-8외,매일,37.738405,127.052686,68,"청과, 야채 등",온누리상품권,,Y,Y,1973,031-848-1106,2017-03-31,
경안시장,상설+오일장,경기도 광주시 경안로25번길14,경기도 광주시 경안동33-16,3일+8일,37.408772,127.257083,87,"농수축산물, 생필품 등",온누리상품권,,Y,Y,2005,,2017-10-23,
남부시장,상설,경기도 안양시 만안구 안양로 248번길 19-11,경기도 안양시 만안구 안양1동 622-229,매일,37.3959873,126.9250892,255,"농산물, 생필품,수산물, 잡화 등",온누리상품권,,Y,Y,2005,031-449-7400,2017-11-21,
박달시장,상설,경기도 안양시 만안구 양화로 115번길 6,경기도 안양시 만안구 박달1동 20,매일,37.405787,126.9098405,167,"농산물, 생필품,수산물, 잡화 등",온누리상품권,,Y,Y,2005,031-469-2660,2017-11-21,
호계종합시장,상설,경기도 안양시 동안구 흥안대로 133번길 34,경기도 안양시 동안구  호계1동 997,매일,37.3725485,126.9592483,254,"농산물, 생필품,수산물, 잡화 등",온누리상품권,http://www.호계시장.com,Y,Y,2008,031-453-4766,2017-11-21,
관양시장,상설,경기도 안양시 동안구 관평로 328,경기도 안양시 동안구  관양1동 1404,매일,37.4053813,126.9579249,145,"농산물, 생필품,수산물, 잡화 등",온누리상품권,,Y,N,2006,031-386-5577,2017-11-21,
중앙인정시장,상설,경기도 안양시 만안구 안양로 311,경기도 안양시 만안구 안양4동 676,매일,37.3996818,126.9201252,1438,"농산물, 생필품,수산물, 잡화 등",온누리상품권,http://www.ajmarket.co.kr/,Y,Y,2006,031-447-9961,2017-11-21,
원당시장,상설,경기도 고양시 덕양구 호국로790번길17,경기도 고양시 덕양구 성사동697-14,매일,37.6562848,126.8373089,67,농수축산물+잡화,온누리상품권,,N,N,2005,031-963-0013,2017-02-17,
능곡시장,상설,경기도 고양시 덕양구 능곡로12-9,경기도 고양시 덕양구 토당동348-9,매일,37.6212564,126.8211645,59,농수축산물+잡화,온누리상품권,,Y,N,2011,031-973-3727,2017-02-17,
일산시장,상설,경기도 고양시 일산서구 일청로12번길9,경기도 고양시 일산서구 일산동617-20,매일,37.6857339,126.7709181,130,농수축산물+잡화,온누리상품권,,Y,Y,1979,031-975-3903,2017-02-17,
패션1번지,상설,경기도 고양시 일산서구 탄중로101번길13,경기도 고양시 일산서구 덕이동384-1,매일,37.6930013,126.7557479,61,패션의류,온누리상품권,,Y,Y,2007,031-917-6669,2017-02-17,
공덕시장,상설시장,서울특별시 마포구 만리재로 19(공덕동),서울특별시 마포구 공덕동 256-10,매일,37.5456345,126.9534678,43,"농수산물, 잡화 등",온누리상품권,,Y,N,1974,02-712-0076,2017-11-16,
마포시장,상설시장,"서울특별시 마포구 마포대로6길 16(공덕동)(C동), 만리재로 23(공덕동)(A동)",서울특별시 마포구 공덕동 256-5,매일,37.5453809,126.9535624,78,"농수산물, 잡화 등",온누리상품권,,Y,N,1977,02-714-2959,2017-11-16,
동진시장,상설시장,서울특별시 마포구 성미산로 198(연남동),서울특별시 마포구 연남동 227-15,매일,37.5623371,126.9266909,19,"식당, 방앗간, 철물점 등",,https://www.facebook.com/makedongjin,Y,N,1974,02-325-9559,2017-11-16,
영진시장,상설시장,서울특별시 마포구 동교로12길 21(서교동),서울특별시 마포구 서교동 485-14,매일,37.5536712,126.9128358,13,"식당, 방앗간, 잡화 등",,,Y,Y,1972,02-336-1494,2017-11-16,
신촌시장,상설,경상남도 창원시 의창구 북면 천주로 1144-8,경상남도 창원시 의창구 북면 신촌리 593,매일,35.351674,128.608807,36,"농산물, 생필품",,,Y,Y,1920,055-212-4413,2017-12-11,
가술시장,오일장,경상남도 창원시 의창구 대산면 가술길1번길 6-1,경상남도 창원시 의창구 대산면 가술리 385-1,1일+6일,35.334428,128.707212,,농산물,,,Y,Y,1929,055-212-4413,2017-12-11,
소계시장,상설,경상남도 창원시 의창구 소계로 83-6(소계동),경상남도 창원시 의창구 소계동 724-4,매일,35.256755,128.598981,62,생필품,온누리상품권,,Y,N,1984,055-256-0285,2017-12-11,
소계옛길시장,상설,경상남도 창원시 의창구 소계로 93-5(소계동),경상남도 창원시 의창구 소계동 724-21,매일,35.257316,128.598512,53,"즉석식품, 농산물, 생필품",온누리상품권,,N,N,2015,055-252-1020,2017-12-11,
북동공설시장,상설,경상남도 창원시 의창구 의안로 49번길 30(북동),경상남도 창원시 의창구 북동 249-1,매일,35.266176,128.620711,30,"약초, 중탕, 떡등",,,Y,Y,2001,055-299-3108,2017-12-11,
소답시장,상설+오일장,경상남도 창원시 의창구 읍성로 33번길 8(북동),경상남도 창원시 의창구 북동 235-1,매일+2일+7일,35.265333,128.621258,68,"농산물, 생필품",온누리상품권,,Y,Y,2012,055-253-3384,2017-12-11,
대동중앙상가,상설,경상남도 창원시 의창구 반계로 105(팔용동),경상남도 창원시 의창구 팔용동 124-2,매일,35.254184,128.616233,49,생필품,온누리상품권,,Y,N,1993,055-298-9070,2017-12-11,
창원기계공구상가,상설,경상남도 창원시 의창구 창원대로 400(팔용동),경상남도 창원시 의창구 팔용동 16-1,매일,35.233768,128.641091,215,"기계, 공구",온누리상품권,,Y,Y,1993,055-238-0598,2017-12-11,
명곡종합상가,상설,경상남도 창원시 의창구 명서로 116번길 20(명서동),경상남도 창원시 의창구 명서동 75-16,매일,35.248475,128.646216,129,생필품,온누리상품권,,Y,Y,1995,055-273-7234,2017-12-11,
명서시장,상설,경상남도 창원시 의창구 원이대로 189번길(명서동),경상남도 창원시 의창구 명서동 48-10,매일,35.249441,128.645990,185,"먹거리, 떡, 생필품",온누리상품권,,Y,Y,2005,055-265-3536,2017-12-11,
도계시장,상설,경상남도 창원시 의창구 원이대로 69번길 20(도계동),경상남도 창원시 의창구 도계동 400-1,매일,35.257211,128.637155,107,"먹거리, 떡, 생필품",온누리상품권,,Y,N,2007,070-4113-8921,2017-12-11,
신월6동 골목시장,상설,서울특별시 양천구 신월로16길 7 (신월동),서울특별시 양천구 신월동 575-8,매일,37.517664,126.842649,98,농수산 식품,,,N,N,,,2017-11-01,
봉곡프라자상가,상설,경상남도 창원시 의창구 창이대로 205번길 5(봉곡동),경상남도 창원시 의창구 봉곡동 61-10,매일,35.245625,128.659481,82,생필품,온누리상품권,,Y,Y,1994,055-265-1237,2017-12-11,
봉곡시장,상설,경상남도 창원시 의창구 봉곡로 111번길 12(봉곡동),경상남도 창원시 의창구 봉곡동 145-1,매일,35.246958,128.671989,151,"생필품, 과일, 생선",온누리상품권,,Y,N,1994,055-267-1500,2017-12-11,
지귀상가,상설,경상남도 창원시 의창구 창이대로 197번길 10-6(봉곡동),경상남도 창원시 의창구 봉곡동 61-9,매일,35.245337,128.659117,56,생필품,,,Y,N,2014,055-288-0865,2017-12-11,
지귀시장,상설+오일장,경상남도 창원시 의창구 지귀로 119번길 6(봉곡동),경상남도 창원시 의창구 봉곡동 61-4외,매일+1일+6일,35.245681,128.658853,67,"생필품, 과일, 생선",온누리상품권,,Y,N,2014,055-237-6400,2017-12-11,
롯데종합상가,상설,경상남도 창원시 의창구 용지로 225(용호동),경상남도 창원시 의창구 용호동 63,매일,35.234010,128.685432,66,생필품,,,Y,Y,1985,055-281-3705,2017-12-11,
토월복합상가시장,상설,경상남도 창원시 의창구 신월로 42(신월동),경상남도 창원시 의창구 신월동 68-1,매일,35.228040,128.691934,180,생필품,온누리상품권,,Y,Y,1992,055-284-5079,2017-12-11,
정우상가,상설,경상남도 창원시 의창구 원이대로 587(용호동),경상남도 창원시 의창구 용호동 73-62,매일,35.228410,128.679498,51,생필품,,,Y,N,2014,055-287-6101,2017-12-11,
대동그린코아상가,상설,경상남도 창원시 성산구 창원천로 288(반지동),경상남도 창원시 성산구 반지동 23,매일,35.244294,128.669694,68,생필품,온누리상품권,,Y,Y,1991,055-277-0999,2017-12-11,
반송시장,상설,경상남도 창원시 성산구 원이대로473번길20-11(반림동),경상남도 창원시 성산구 반림동 17-23번지,매일,35.236014,128.669250,205,"생필품, 과일, 생선 등",온누리상품권,,Y,Y,2005,055-275-0449,2017-12-11,
중앙시장,상설,경상남도 창원시 성산구 외동반림로126번길 50(중앙동),경상남도 창원시 성산구 중앙동 69-1,매일,35.227202,128.676097,35,먹거리,온누리상품권,,Y,Y,1980,055-282-7009,2017-12-11,
동성올림픽타운,상설,경상남도 창원시 성산구 중앙대로 77(중앙동),경상남도 창원시 성산구 중앙동 97-2,매일,35.222244,128.677731,87,먹거리,온누리상품권,,Y,Y,1993,055-268-5605,2017-12-11,
창원캔버라타운,상설,경상남도 창원시 성산구 중앙대로61번길 4(중앙동),경상남도 창원시 성산구 중앙동 97-6,매일,35.221228,128.676842,115,먹거리,온누리상품권,,Y,Y,1993,055-268-5015,2017-12-11,
덕산그린피아상가,상설,경상남도 창원시 성산구 용지로 64(중앙동),경상남도 창원시 성산구 중앙동 98-6,매일,35.221677,128.676041,74,"생필품, 먹거리",온누리상품권,,Y,Y,1996,055-279-0045,2017-12-11,
경창상가,상설,경상남도 창원시 성산구 상남로 67(상남동),경상남도 창원시 성산구 상남동 73-5,매일,35.220203,128.679271,73,"생필품, 먹거리",온누리상품권,,Y,Y,1982,055-287-4404,2017-12-11,
창원코아상가,상설,경상남도 창원시 성산구 상남로 71(상남동),경상남도 창원시 성산구 상남동 73-4,매일,35.220465,128.679493,134,"생필품, 먹거리",온누리상품권,,Y,Y,1997,055-282-0435,2017-12-11,
성원그랜드 종합상가,상설,경상남도 창원시 성산구 동산로 124(상남동),경상남도 창원시 성산구 상남동 45-1,매일,35.218988,128.690974,543,"생필품, 먹거리",온누리상품권,,Y,Y,1994,055-267-3196,2017-12-11,
상남시장,상설+오일장,경상남도 창원시 성산구 마디미로 28(상남동),경상남도 창원시 성산구 상남동 16,매일+4일+9일,35.222210,128.683403,554,"생필품, 과일, 생선 등",온누리상품권,,Y,Y,2000,055-262-1494,2017-12-11,
대방덕산상가,상설,경상남도 창원시 성산구 대정로 131(대방동),경상남도 창원시 성산구 대방동 356,매일,35.213560,128.706913,67,"생필품, 먹거리",온누리상품권,,Y,Y,1992,055-284-8262,2017-12-11,
대동훼미리종합상가,상설,경상남도 창원시 성산구 대정로 138(대방동),경상남도 창원시 성산구 대방동 358,매일,35.209937,128.708756,100,"생필품, 먹거리",온누리상품권,,Y,Y,1992,055-266-3096,2017-12-11,
성원3차종합상가,상설,경상남도 창원시 성산구 대암로 80(대방동),경상남도 창원시 성산구 대방동 355,매일,35.215138,128.708508,99,"생필품, 먹거리",온누리상품권,,Y,Y,1992,055-282-8142,2017-12-11,
사파동성종합상가,상설,경상남도 창원시 성산구 창이대로 733(사파동),경상남도 창원시 성산구 사파동 93,매일,35.219156,128.703524,98,"생필품, 먹거리",온누리상품권,,Y,Y,1993,055-261-4439,2017-12-11,
가음시장대상가,상설,경상남도 창원시 성산구 원이대로883번길 15-24(가음동),경상남도 창원시 성산구 가음동 21-20,매일,35.208048,128.697008,162,"생필품, 먹거리",온누리상품권,,Y,Y,2000,055-264-5920,2017-12-11,
가음정시장,상설,경상남도 창원시 성산구 원이대로863번길 24(가음정동),경상남도 창원시 성산구 가음동 21-3번지,매일,35.208353,128.697663,192,"생필품, 과일, 생선 등",온누리상품권,,Y,Y,2005,055-283-2552,2017-12-11,
양곡시장,상설,경상남도 창원시 성산구 신촌로 102(신촌동),경상남도 창원시 성산구 신촌동 33-2,매일,35.200846,128.628347,94,"생필품, 먹거리",온누리상품권,,Y,Y,1980,055-286-2458,2017-12-11,
유신종합상가,상설,경상남도 창원시 성산구 신촌로 21(신촌동),경상남도 창원시 성산구 신촌동 15-6,매일,35.207560,128.626798,43,"생필품, 먹거리",온누리상품권,,Y,Y,1981,055-286-0732,2017-12-11,
진동시장(정기),상설,경상남도 창원시 마산합포구 진동시장길43-7,경상남도 창원시 마산합포구 진동리237-11,매일,35.113533,128.488017,34,"생필품, 과일, 생선",,,Y,Y,1962,055-272-0111,2017-12-11,
진동전통시장,상설+오일장,경상남도 창원시 마산합포구 진동면 진동시장길 62,경상남도 창원시 마산합포구 진동리264-3,매일+4일+9일,35.113311,128.487352,70,"생필품, 과일, 생선",,,N,Y,1912,,2017-12-11,
대동씨코아상가시장,상설,경상남도 창원시 마산합포구 월영동로8 (해운동),경상남도 창원시 마산합포구 해운동 37-4,매일,35.179756,128.562490,233,"의류, 보리밥, 학원, 스포츠센터 등",온누리상품권,,Y,Y,1994,055-245-5569,2017-12-11,
신마산시장,상설,경상남도 창원시 마산합포구 문화동15길13 (해운동),경상남도 창원시 마산합포구 해운동 64,매일,35.181164,128.561742,85,"실비집, 활어, 분식",온누리상품권,,Y,N,1998,055-223-0325,2017-12-11,
월영대시장,상설,경상남도 창원시 마산합포구 월영남1길13 (월영동),경상남도 창원시 마산합포구 해운동 14-15,매일,35.179262,128.557772,108,"먹거리, 생필품",,,N,N,2013,,2017-12-11,
신마산반월시장,상설,경상남도 창원시 마산합포구 반월남1길18-16 (반월동),경상남도 창원시 마산합포구 반월동 85-3,매일,35.189219,128.561026,115,먹거리,온누리상품권,,Y,N,1980,055-221-6666,2017-12-11,
정우새어시장,상설,경상남도 창원시 마산합포구 어시장7길126(동성동),경상남도 창원시 마산합포구 동성동 313,매일,35.204103,128.578735,97,수산물,온누리상품권,,Y,Y,1996,055-245-7054,2017-12-11,
마산어시장,상설,경상남도 창원시 마산합포구 복요리로7(동성동),경상남도 창원시 마산합포구 동성동 314,매일,35.203758,128.578973,1179,수산물,온누리상품권,,Y,Y,1780,055-224-0009,2017-12-11,
부림시장,상설,경상남도 창원시 마산합포구 3.15대로352(부림동),경상남도 창원시 마산합포구 부림동 32,매일,35.205765,128.573438,478,"먹거리, 의류, 생필품",온누리상품권,,Y,Y,1981,055-246-3729,2017-12-11,
신월7동 골목시장,상설,서울특별시 양천구 지양로82 (신월동),서울특별시 양천구 신월동 921-1,매일,37.522763,126.833278,10,농수산 식품,,,N,N,,,2017-11-01,
부림상시장,상설,경상남도 창원시 마산합포구 3.15대로349(부림동),경상남도 창원시 마산합포구 부림동 83,매일,35.205779,128.572286,89,"문구, 땅콩 등",온누리상품권,,Y,Y,1982,055-223-0025,2017-12-11,
부림지하시장,상설,경상남도 창원시 마산합포구 3.15대로351(부림동),경상남도 창원시 마산합포구 부림동 112,매일,35.205819,128.572946,143,"의류, 액세사리",온누리상품권,,Y,Y,1980,055-243-6655,2017-12-11,
수남상가,상설,경상남도 창원시 마산합포구 동서북8길17(수성동),경상남도 창원시 마산합포구 수성동104,매일,35.203921,128.574491,120,"의류, 생필품",,,N,N,2008,,2017-12-11,
창동통합상가,상설,경상남도 창원시 마산합포구 창동거리길32(창동),경상남도 창원시 마산합포구 창동120-2,매일,35.206101,128.574713,350,"의류, 생필품",온누리상품권,,Y,Y,2006,055-222-3007,2017-12-11,
마산수산시장,상설,경상남도 창원시 마산합포구 수산1길 144(남성동),경상남도 창원시 마산합포구 남성동230-1,매일,35.201628,128.578637,128,수산물,,,N,N,2014,055-222-4322,2017-12-11,
북마산가구시장,상설,경상남도 창원시 마산합포구 북성로3(창동),경상남도 창원시 마산합포구 창동8-1,매일,35.207608,128.573603,61,생필품,,,N,N,2013,055-221-4008,2017-12-11,
북마산중앙시장,상설,경상남도 창원시 마산합포구 상남시장로3(상남동),경상남도 창원시 마산합포구 상남동 40-1,매일,35.215999,128.571255,204,"활어회, 의류, 생활용품",온누리상품권,,Y,N,1976,055-246-0824,2017-12-11,
(주)기산프라자,상설,경상남도 창원시 마산합포구 오동동14길29(오동동),경상남도 창원시 마산합포구 오동동18-61,매일,35.205256,128.580840,158,"컴퓨터 주변기기, 문구, 공산품",,,Y,N,1997,055-243-4577,2017-12-11,
오동동상인연합,상설,경상남도 창원시 마산합포구 오동북19길15(오동동),경상남도 창원시 마산합포구 오동동153-16,매일,35.207282,128.577546,772,"생필품, 먹거리, 의류",온누리상품권,,N,Y,2008,055-223-0606,2017-12-11,
산호시장,상설,경상남도 창원시 마산합포구 산호시장길18(산호동),경상남도 창원시 마산합포구 산호동 28-8,매일,35.218326,128.581826,92,"먹거리, 떡, 생필품",온누리상품권,,Y,Y,1978,055-241-0829,2017-12-11,
코오롱타운상가,상설,경상남도 창원시 마산회원구 내서읍 호원로 361-2,경상남도 창원시 마산회원구 내서읍 호계리 10,매일,35.265431,128.525497,67,"의류, 식당, 잡화 등",온누리상품권,,Y,Y,2002,055-256-9394,2017-12-11,
신정1동 골목시장,상설,서울특별시 양천구 중앙로34길 28 (신정동),서울특별시 양천구 신정동 1029-1,매일,37.520585,126.853810,38,농수산 식품,,,N,N,,,2017-11-01,
서마산시장,상설,경상남도 창원시 마산회원구 석전남16길 64(석전동),경상남도 창원시 마산회원구 석전동 155-1,매일,35.229077,128.569130,20,"채소, 과일, 방앗간 등",온누리상품권,,Y,N,1981,055-296-3401,2017-12-11,
역전통합시장,상설,경상남도 창원시 마산회원구 석전동15길 23(석전동),경상남도 창원시 마산회원구 석전동 226-2,매일,35.236135,128.579477,23,"식당, 의류, 탕제원 등",온누리상품권,,Y,N,1981,055-299-1033,2017-12-11,
석전시장,상설,경상남도 창원시 마산회원구 석전동6길 32(석전동),경상남도 창원시 마산회원구 석전동 257-1,매일,35.230406,128.574922,32,"식당, 농산물, 횟집 등",온누리상품권,,Y,Y,1980,055-256-7661,2017-12-11,
마산역번개시장,상설,경상남도 창원시 마산회원구 석전동17길 37(석전동) 일원,경상남도 창원시 마산회원구 석전동 227-1 일원,매일,35.236725,128.578757,109,"채소, 과일, 고기 등",온누리상품권,,Y,Y,2011,055-251-1653,2017-12-11,
회성종합시장,상설,경상남도 창원시 마산회원구 회성시장1길 16(회성동),경상남도 창원시 마산회원구 회성동 450-2,매일,35.232853,128.559394,37,"떡, 참기름, 고춧가루 등",온누리상품권,,Y,Y,1988,055-255-6051,2017-12-11,
양덕중앙시장,상설,경상남도 창원시 마산회원구 양덕북10길 23(양덕동),경상남도 창원시 마산회원구 양덕동 15-1,매일,35.232596,128.584255,18,"이불, 그릇, 반찬, 의류 등",온누리상품권,,Y,N,1982,055-299-0041,2017-12-11,
대현프리몰,상설,경상남도 창원시 마산회원구 3.15대로 지하758(합성동),경상남도 창원시 마산회원구 합성동 5860,매일,35.250683,128.574231,230,"의류, 액세서리, 제화, 등",온누리상품권,http://www.primall.co.kr/massan,Y,Y,1993,055-292-7988,2017-12-11,
동마산시장,상설,경상남도 창원시 마산회원구 합성남8길 76(합성동) 일원,경상남도 창원시 마산회원구 합성동 326-1 일원,매일,35.240034,128.587554,131,"채소, 과일, 식당, 의류, 잡화 등",온누리상품권,,Y,Y,2013,055-256-3261,2017-12-11,
합성동상가,상설,경상남도 창원시 마산회원구 합성옛길 136(합성동) 일원,경상남도 창원시 마산회원구 합성동 125-3 일원,매일,35.237721,128.583482,78,"음식점, 생활필수품 등",온누리상품권,,Y,N,2011,055-296-4050,2017-12-11,
구암현대시장,상설,경상남도 창원시 마산회원구 구암서2길 51(구암동),경상남도 창원시 마산회원구 구암동 18-1,매일,35.248213,128.591530,74,"의류, 철물, 이불, 의류 등",온누리상품권,,Y,N,1980,055-255-1833,2017-12-11,
대합정기시장,오일장,경상남도 창녕군 대합면 도장골길 4-13,,"2일,7일",35.6132732993,128.472155939,,,,,,,,,2017-04-27,
구암시장,상설,경상남도 창원시 마산회원구 구암남14길 8(구암동),경상남도 창원시 마산회원구 구암동 88-2,매일,35.249549,128.599645,56,"식료품, 의류, 식당, 잡화 등",온누리상품권,,Y,Y,1997,055-256-0076,2017-12-11,
경민인터빌상가,상설,경상남도 창원시 마산회원구 양덕북12길 113(양덕동),경상남도 창원시 마산회원구 양덕동 15-27,매일,35.231700,128.583844,57,"의류, 식당, 잡화 등",온누리상품권,,Y,Y,2013,055-298-8183,2017-12-11,
합성옛길시장,상설,경상남도 창원시 마산회원구 합성옛길 77(양덕동) 일원,경상남도 창원시 마산회원구 양덕동 7-1 일원,매일,35.235336,128.582032,63,"음식점, 숙박, 의류 등",온누리상품권,,Y,N,2013,,2017-12-11,
양덕종합시장,상설,경상남도 창원시 마산회원구 양덕시장길 7(양덕동),경상남도 창원시 마산회원구 양덕동 164-20,매일,35.221851,128.591179,4,잡화 등,온누리상품권,,Y,N,1980,055-255-6410,2017-12-11,
중앙시장,상설,경상남도 창원시 진해구 벚꽃로 60번길 25(화천동),경상남도 창원시 진해구 벚꽃로 60번길25(화천동),매일,35.150300,128.665792,279,"채소, 육류, 어류, 식당, 의류 등",중앙시장상품권+온누리 상품권,,Y,Y,1946,055-546-6024,2017-12-11,
경화시장,오일장,경상남도 창원시 진해구 병암로45번길 14-13(경화동),경상남도 창원시 진해구 경화시장로 35(경화동),3일+8일,35.156755,128.690427,143,"과일, 생선, 채소, 의류, 생필품",온누리상품권,,Y,Y,1955,055-544-1112,2017-12-11,
중부시장,상설,경상남도 창원시 진해구 중초로 20(경화동),경상남도 창원시 진해구 중초로 20(경화동),매일,35.154853,128.681590,103,"식당, 마트, 방앗간, 장판  등",온누리상품권,,Y,Y,1977,055-546-0010,2017-12-11,
마천시장,오일장,경상남도 창원시 진해구 웅동로 57번가길 7,경상남도 창원시 진해구 웅동로57번가길 7(마천동),5일+10일,35.125570,128.782299,33,"농산물, 수산물",온누리상품권,,Y,N,1958,,2017-12-11,
웅천시장,오일장,경상남도 창원시 진해구 웅천중로 56번길 8(성내동),경상남도 창원시 진해구 웅천중로56번길 8(성내동),4일+9일,35.110969,128.750683,28,농산물,온누리상품권,,Y,N,1958,055-541-0215,2017-12-11,
단양구경시장,상설+오일장,충청북도 단양군 단양읍 도전5길 31,충청북도 단양군 단양읍 도전리 615,"매일, 1일, 6일",36.9824715,128.3698933,120,"농수산물, 의류, 잡화, 신발 등","단양사랑상품권, 온누리상품권",,Y,Y,1985,043-422-1706,2017-11-30,
신정2동 골목시장,상설,서울특별시 양천구 신목로2길 35-2 (신정동),서울특별시 양천구 신정동 127-19,매일,37.521567,126.876972,60,농수산 식품,,,N,N,,,2017-11-01,
중앙도매시장,상설,대전광역시 동구 중앙로 200번길 73(원동),대전광역시 동구 원동 38-1번지,매일,36.32777,127.4333,84,"침구,의류,한복",온누리상품권,,Y,N,1973,042-257-7093,2017-11-30,
자유도매시장,상설,대전광역시 동구 중앙로 200번길 40(원동),대전광역시 동구 원동 64-1번지,매일,36.329,127.4319,59,"그릇,이불,의류",온누리상품권,,Y,N,1981,042-221-0711,2017-11-30,
대전도매시장,상설,대전광역시 동구 대전로 785번길 10(중동),대전광역시 동구 중동 76번지,매일,36.32979,127.4332,140,"의류,잡화,가정용품",온누리상품권,,Y,N,1962,042-257-2410,2017-11-30,
중앙종합시장,상설,대전광역시 동구 중교로 119(원동),대전광역시 동구 원동 65-1번지,매일,36.32982,127.4332,120,"의류,신발,커튼",온누리상품권,,Y,N,1985,042-257-3713,2017-11-30,
중앙상가시장,상설,대전광역시 동구 대전로 797번길 51(중동),대전광역시 동구 중동 28-1번지,매일,36.32866,127.4322,443,"식당,의류,잡화",온누리상품권,,Y,N,1962,042-257-3752,2017-11-30,
전통중앙도매시장,상설,대전광역시 동구 대전로 791번길 3(중동),대전광역시 동구 중동 76-1,매일,36.32779,127.4333,84,"의류,침구,한복",온누리상품권,,Y,N,1973,042-222-2989,2017-11-30,
용운시장,상설,대전광역시 동구 용운로164번길 5 (용운동),대전광역시 동구 용운동 305-1번지,매일,36.32771,127.4608,80,"식당,채소,잡화",온누리상품권,,Y,Y,1989,042-282-8374,2017-11-30,
신도시장,상설,대전광역시 동구 흥룡로37번길 12 (가양동),대전광역시 동구 가양동 38-5번지,매일,36.34934,127.4468,72,"채소,생선,건어물,의류",온누리상품권,,Y,Y,1982,042-624-0997,2017-11-30,
인동시장,상설,대전광역시 동구 대전천동로 450 (인동),대전광역시 동구 인동 53-1번지,매일,36.32169,127.437,61,"쌀,곡류,생필품",온누리상품권,,Y,N,2011,042-282-1010,2017-11-30,
대전상가시장,상설,대전광역시 동구 충무로 185 (인동),대전광역시 동구인동 52-1번지,매일,36.32178,127.4366,93,"쌀,식당,잡화",온누리상품권,,Y,N,1973,042-284-6562,2017-11-30,
역전지하상가시장,상설,대전광역시 동구 중앙로 지하218 (중동),대전광역시 동구 중동 317번지,매일,36.32179,127.4366,213,"의류,휴대폰,귀금속,신발",온누리상품권,,Y,N,2001,042-221-3628,2017-11-30,
평화시장,상설,대전광역시 동구 동서대로1572번길 173(성남동),대전광역시 동구 성남동 157-6,매일,36.3413,127.4345,50,"식품,식당",온누리상품권,,Y,N,1979,042)251-4615,2017-11-30,
구가양시장,상설,대전광역시 동구 매봉로 18 (가양동),대전광역시 동구 가양동 434번지,매일,36.34628,127.4432,49,"식품,잡화,의류등",온누리상품권,,Y,N,1979,042-672-3783,2017-11-30,
신가양종합시장,상설,대전광역시 동구 가양로80번길 23 (가양동),대전광역시 동구 가양동 295-8,매일,36.34259,127.4431,43,"의류,식당,생필품",온누리상품권,,Y,N,1973,042)251-4615,2017-11-30,
아리랑프라자,상설,대전광역시 동구 홍도로 35 (홍도동),대전광역시 동구 홍도동 12,매일,36.348,127.4297,1,생필품,온누리상품권,,Y,Y,1998,042)251-4615,2017-11-30,
천년고성시장,상설+오일장,강원도 고성군 간성읍 간성시장2길 6,강원도 고성군 간성읍 신안리 262-1,2일+7일,38.3794578,128.4698449,95,"농산물, 생필품, 수산물, 잡화 등",온나라상품권+강원상품권+고성사랑상품권+농협상품권,,Y,Y,1965,033-682-7885,2017-11-22,
거진전통시장,상설+오일장,강원도 고성군 거진읍 거진시장길 15,강원도 고성군 거진읍 거진리 272,1일+6일,38.4476517,128.4542457,54,"농산물, 생필품, 수산물, 잡화 등",온나라상품권+강원상품권+고성사랑상품권+농협상품권,http://geojinmarket.kr,Y,Y,1965,033-681-8606,2017-11-22,
지도전통시장,오일장,전라남도 신안군 지도읍 읍내길 16-20,전라남도 신안군 지도읍 읍내리 168-6 외,3일+8일,35.0588727581,126.206811708,60,"농산물, 생필품, 수산물",,,Y,Y,2015,,2017-11-30,
황룡시장,오일장,전라남도 장성군 황룡면 삼월길 5,전라남도 장성군 황룡면 월평리 151-1,"4일, 9일",35.2917141,126.7739178,419,"농산물, 생필품, 수산물, 잡화 등",온누리상품권,N,Y,Y,1964,061-390-7353,2017-11-30,
사창시장,오일장,전라남도 장성군 삼계면 사창로 81-2,전라남도 장성군 삼계면 사창리 482-44,"2일, 7일",35.2602878,126.6632184,34,"농산물, 생필품, 수산물, 잡화 등",온누리상품권,N,Y,Y,1964,061-390-7353,2017-11-30,
사가시장,오일장,전라남도 장성군 북이면 사남북길 20-4,전라남도 장성군 북이면 사거리 699,"1일, 6일",34.4276378,125.8072936,57,"농산물, 생필품, 수산물, 잡화 등",온누리상품권,N,Y,Y,1964,061-390-7353,2017-11-30,
완도5일시장,오일장,전라남도 완도군 완도읍 개포로 34-10,전라남도 완도군 완도읍 군내리 1249-2,5일,34.316064,126.748156,13,"농산물, 수산물 등",온누리상품권,,Y,N,1981,,2017-11-15,
금일5일시장,오일장,전라남도 완도군 금일읍 금일로 278,전라남도 완도군 금일읍 화목리 739-1,5일,34.354243,127.020431,10,"농산물, 수산물 등",온누리상품권,,Y,N,1968,,2017-11-15,
매포전통시장,상설+오일장,충청북도 단양군 매포읍 평동24길 3-4,충청북도 단양군 매포읍 평동리 1139,"매일, 4일, 9일",37.0342037,128.2990135,62,"농수산물, 의류, 잡화, 신발 등","단양사랑상품권, 온누리상품권",,Y,Y,1992,043-422-1583,2017-11-30,
영춘전통시장,오일장,충청북도 단양군 영춘면 온달평강로 59-8,충청북도 단양군 영춘면 상리 409,"3일, 8일",37.0791772,128.4836708,50,"농수산물, 잡화 등","단양사랑상품권, 온누리상품권",,N,N,1962,043-423-7050,2017-11-30,
상진시장,상설,충청북도 단양군 단양읍 상진13길 13,충청북도 단양군 단양읍 상진리 805,매일,36.9774974,128.3571298,58,잡화 등,"단양사랑상품권, 온누리상품권",,N,N,1985,043-422-3687,2017-11-30,
부강상가시장,상설,충청북도 단양군 단양읍 별곡7길 4,충청북도 단양군 단양읍 별곡리 570-1,매일,36.9852733,128.370145,30,잡화 등,"단양사랑상품권, 온누리상품권",,N,Y,1992,043-422-2838,2017-11-30,
진천중앙시장,상설,충청북도 진천군 진천읍 중앙서로 29-1 일원,매일,충청북도 진천군 진천읍 읍내리 305-10번지,36.8570735,127.4422876,61,"청과, 떡, 채소 등",온누리상품권+진천사랑상품권,http://www.joongangsijang.com,Y,Y,1950,043-533-8966,2017-11-16,
운수대통 생거진천전통시장,상설+오일장,충청북도 진천군 진천읍 원덕로 390 일원,"5일,10일",충청북도 진천군 진천읍 성석리 969번지,36.8646422,127.4529428,72,"청과, 정육, 수산, 떡, 채소, 밑반찬, 생활잡화 등",온누리상품권+진천사랑상품권,,Y,Y,1976,043-534-3338,2017-11-16,
웃   장,상설,전라남도 순천시 북문길 40,전라남도 순천시 동외동 168-1,"매일,5일 10일",34.573082,127.290782,162,"국밥,농수산물,의류",온누리,×,Y,Y,1975,061-749-3498,2017-11-20,
아랫장,상설,전라남도 순천시 장평로 60,전라남도 순천시 풍덕동 1264,2일 7일,34.94536216,127.4953471,206,"식품,곡물,채소,생선,의류",온누리,×,Y,Y,1977,061-749-3453,2017-11-20,
승주시장,오일장,전라남도 순천시 승주읍 승주장길 20,전라남도 순천시 승주읍 서평리 423-1,6일 11일,35.0131735,127.3857035,41,"식품,곡물,채소,생선,의류",온누리,×,Y,Y,1964,,2017-11-20,
주암시장,오일장,전라남도 순천시 주암면 주암호길 9,전라남도 순천시 주암면 광천리 53,2일 7일,35.0758608,127.2332885,13,"식품,잡화, 농수산물",온누리,×,Y,Y,1964,,2017-11-20,
별량시장,상설,전라남도 순천시 별량면 별량장길 38,전라남도 순천시 별량면 봉림리 207-10,3일 8일,34.8736558,127.4500284,18,"슈퍼마켓, 빵집",온누리,×,N,N,1964,,2017-11-20,
신곡종합,상설,서울특별시 양천구 남부순환로79길 37 (신월동),서울특별시 양천구 신월동 575-17,매일,37.517779,126.842561,10,농수산 식품,,,N,N,1981,02-2698-6057,2017-11-01,
우성상가,상설,서울특별시 양천구 지양로 78 (신월동),서울특별시 양천구 신월동 928-1,매일,37.522622,126.833559,19,농수산 식품,,,Y,Y,1988,02-2693-1241,2017-11-01,
신정제일시장,상설,서울특별시 양천구 중앙로34길 30 (신정동),서울특별시 양천구 신정동 1030-6,매일,37.520733,126.853668,16,농수산 식품,,,N,N,1974,,2017-11-01,
남해전통시장,"상시, 5일장",경상남도 남해군 남해읍 화전로 110,경상남도 남해군 남해읍 북변리 282-11,"2,  7일",34.567891,123.456781,105,"농산물, 생필품, 수산물, 잡화 등",온누리상품권,http://남해전통시장.com,Y,Y,1978,055-864-3592,2017-11-13,
이동공설시장,5일장,경상남도 남해군 이동면 무림로 63번길9,경상남도 남해군 이동면 무림리 1140,"5, 10일",,,28,"농산물, 수산물",온누리상품권,,Y,Y,1933,,2017-11-13,
지족공설시장,5일장,경상남도 남해군 삼동면 동부대로 1876번길 30-1,경상남도 남해군 삼동면 지족리 200-7,"1,  6일",,,11,"어패류, 멸치",온누리상품권,,Y,Y,1957,,2017-11-13,
남면공설시장,5일장,경상남도 남해군 남면 남서대로 785-4,경상남도 남해군 남면 당항리 1381-5,"4,  9일",,,18,"어패류, 농산물",온누리상품권,,Y,Y,1961,,2017-11-13,
고현공성시장,5일장,경상남도 남해군 고현면 탑동로 68-2,경상남도 남해군 고현면 대사리 768,"3,  8일",,,26,농산물,온누리상품권,,Y,Y,1946,,2017-11-13,
부곡시장,상설,부산광역시 금정구 부곡로 107(부곡동),부산광역시 금정구 부곡동 304-1,매일,35.2256215,129.0914663,92,"횟집, 농산물, 제과, 꽃, 옷수선, 금은방, 약국, 배추, 식당",온누리상품권,http://economy.geumjeong.go.kr,N,N,1979,,2017-11-20,
구서오시게시장,상설,부산광역시 금정구 구서로 12(구서동),부산광역시 금정구 구서동 87-9,매일,35.2473579,129.0897886,102,"농산물, 수산물, 활어회, 의류, 잡화, 슈퍼, 가구점",온누리상품권,http://economy.geumjeong.go.kr,N,Y,1981,,2017-11-20,
서동시장,상설,부산광역시 금정구 서동로141번길 21(서동),부산광역시 금정구 서동 302,매일,35.2162892,129.1023514,34,"농산물, 식당, 절임배추, 자장면, 과일, 비닐, 슈퍼",온누리상품권,http://economy.geumjeong.go.kr,Y,N,1981,,2017-11-20,
서동향토시장,상설,부산광역시 금정구 서부로 21-1(서동),부산광역시 금정구 서동 194-1,매일,35.2159347,129.103368,160,"횟집, 농산물, 떡, 배추, 식당, 비닐",온누리상품권,http://economy.geumjeong.go.kr,Y,N,1980,,2017-11-20,
금사제일상가시장,상설,부산광역시 금정구 개좌로 81(금사동),부산광역시 금정구 금사동 68-14,매일,35.2203365,129.1125796,40,"식육식당, 채소, 과일, 생선 등",온누리상품권,http://economy.geumjeong.go.kr,N,N,1979,,2017-11-20,
장전상가시장,상설,부산광역시 금정구 부산대학로49번길 13(장전동),부산광역시 금정구 장전동 421-7,매일,35.2339428,129.0793187,48,"식육점, 돼지국밥, 농산물, 식당, 생선, 야채, 중탕",온누리상품권,http://economy.geumjeong.go.kr,N,N,1974,,2017-11-20,
장성시장,상설,부산광역시 금정구 수림로61번길 53(장전동),부산광역시 금정구 장전동 155-17,매일,35.2374994,129.0855873,28,"전자제품수리, 농산물, 생선, 이불, 탕제원, 잡화 등",온누리상품권,http://economy.geumjeong.go.kr,N,N,1978,,2017-11-20,
서동전통골목시장,상설,부산광역시 금정구 서동로 145-12(서동),부산광역시 금정구 서동 339-1,매일,35.2155735,129.1023439,175,"횟집, 농산물, 떡, 배추, 식당, 비닐 등",온누리상품권,http://economy.geumjeong.go.kr,N,N,1968,,2017-11-20,
강진읍시장,오일장,전라남도 강진군 강진읍 시장길17-14,전라남도 강진군 강진읍 동성리 187-5,"4,9일",34.6400605,126.7739216,72,"채소, 과일, 수산물",강진사랑상품권,없음,Y,Y,1970,061-433-9006,2017-12-12,
마량시장,오일장,전라남도 강진군 마량면 마량5길 11,전라남도 강진군 마량면 마량리 987-11,"3,8일",34.4509989,126.8169186,32,"채소, 과일, 수산물",강진사랑상품권,없음,Y,Y,1970,061-430-3354,2017-12-12,
병영시장,오일장,전라남도 강진군 병영면 남삼인길 6,전라남도 강진군 병영면 삼인리 318,"3,8일",34.7137195,126.8156404,21,"채소, 과일, 수산물",강진사랑상품권,없음,Y,Y,1970,061-430-3354,2017-12-12,
신철원전통시장,오일장,강원도 철원군 갈말읍 삼부연로18번길 16-2,철원군 갈말읍 신철원리 679,3일8일,38.144755,127.309935,51,농축산물 의류 식당 잡화 등,온누리상품권,,Y,Y,1980,033-452-2255,2017-12-11,
와수전통시장,오일장,강원도 철원군 서면 와수로 184번길,철원군 서면 와수리 1171-21,1일6일,38.239368,127.439413,54,오대쌀 순대국 꿩냉면 삼지구엽초 떡 등,온누리상품권,,Y,Y,1978,033-458-9688,2017-12-11,
동송전통시장,오일장,강원도 철원군 동송읍 이평로47번길 17,철원군 동송읍 이평리 678-48,5일10일,38.208596,127.218921,175,농축수산물 의류 잡화 그릇 식당 등,온누리상품권,,Y,Y,2007,033-455-6262,2017-12-11,
포항죽도어시장,상설,,경상북도 포항시 북구 죽도동 1-8,매일,36.0366277018,129.368566807,158,수산물,"포항사랑상품권, 온누리상품권",,Y,Y,1971,054-255-0088,2017-11-27,
서교시장,상설시장,서울특별시 마포구 홍익로3길 20(서교동),서울특별시 마포구 서교동 357-1,매일,37.5536616,126.9218124,54,"농수산물, 마트, 잡화 등",,,Y,Y,1974,02-3141-2503,2017-11-16,
합정시장,상설시장,서울특별시 마포구 양화진길 5(합정동),서울특별시 마포구 합정동 375-1,매일,37.5487612,126.913404,11,"방앗간, 마트 등",,,Y,N,1970,02-334-2425,2017-11-16,
